"","Crime.ID","Month","Reported.by","Falls.within","Longitude","Latitude","Location","LSOA.code","LSOA.name","Crime.type","Last.outcome.category","Context"
"1","","2016-01","City of London Police","City of London Police",-0.112422,51.515381,"On or near Star Yard","E01000914","Camden 028B","Anti-social behaviour","",NA
"2","","2016-01","City of London Police","City of London Police",-0.114954,51.518632,"On or near Brownlow Street","E01000914","Camden 028B","Anti-social behaviour","",NA
"3","","2016-01","City of London Police","City of London Police",-0.114954,51.518632,"On or near Brownlow Street","E01000914","Camden 028B","Anti-social behaviour","",NA
"4","","2016-01","City of London Police","City of London Police",-0.111497,51.518226,"On or near Pedestrian Subway","E01000914","Camden 028B","Anti-social behaviour","",NA
"5","06ad59a65137a97eb1e9e979f1eb96f0d70935e584b3d1ac489847c7c684e5b4","2016-01","City of London Police","City of London Police",-0.113767,51.517372,"On or near Stone Buildings","E01000914","Camden 028B","Other theft","Investigation complete; no suspect identified",NA
"6","","2016-01","City of London Police","City of London Police",-0.097736,51.520206,"On or near Conference/Exhibition Centre","E01000001","City of London 001A","Anti-social behaviour","",NA
"7","","2016-01","City of London Police","City of London Police",-0.097601,51.520699,"On or near Carthusian Street","E01000001","City of London 001A","Anti-social behaviour","",NA
"8","","2016-01","City of London Police","City of London Police",-0.097277,51.515307,"On or near St Martin'S Le Grand","E01000001","City of London 001A","Anti-social behaviour","",NA
"9","","2016-01","City of London Police","City of London Police",-0.097736,51.520206,"On or near Conference/Exhibition Centre","E01000001","City of London 001A","Anti-social behaviour","",NA
"10","9a0c55946ee3af03c5ac9d9329448af954317c897ea3ca88dce37a1c9871f5ac","2016-01","City of London Police","City of London Police",-0.098572,51.516767,"On or near King Edward Street","E01000001","City of London 001A","Bicycle theft","Investigation complete; no suspect identified",NA
"11","1dd469db3a236600afafe7c7d790c196ca82ff54ad569c636216557bcde5c888","2016-01","City of London Police","City of London Police",-0.097601,51.520699,"On or near Carthusian Street","E01000001","City of London 001A","Bicycle theft","Investigation complete; no suspect identified",NA
"12","0a89b47eef6f79a7fecde3eba636782f54783c91a74c27542249549798a4d0d4","2016-01","City of London Police","City of London Police",-0.098572,51.516767,"On or near King Edward Street","E01000001","City of London 001A","Bicycle theft","Investigation complete; no suspect identified",NA
"13","dbd8d486130bf1ae6cddc3e654874bcbe751fc8dac678e731e2bf03f58a0ff7f","2016-01","City of London Police","City of London Police",-0.097334,51.521567,"On or near Fann Street","E01000001","City of London 001A","Burglary","Investigation complete; no suspect identified",NA
"14","6269c87621c12578331bfdb4890d73db078a57c9b8f7fde68b1c11f8df8ffcd0","2016-01","City of London Police","City of London Police",-0.098572,51.516767,"On or near King Edward Street","E01000001","City of London 001A","Drugs","Offender fined",NA
"15","54caeb370d9c4e8c722d7fe5b69f8445b5382a8504789e15f871b4fef38603e9","2016-01","City of London Police","City of London Police",-0.097601,51.520699,"On or near Carthusian Street","E01000001","City of London 001A","Other theft","Investigation complete; no suspect identified",NA
"16","5b6fd91eaec469ffb06bf0c30fdf770b73aa19aed2c5ab65a012055395f54a13","2016-01","City of London Police","City of London Police",-0.097601,51.520699,"On or near Carthusian Street","E01000001","City of London 001A","Other theft","Investigation complete; no suspect identified",NA
"17","e7c9acc7b9ec5e58e1752a11af347c512d21f69e05cd4ba58bfaee1d257993db","2016-01","City of London Police","City of London Police",-0.097601,51.520699,"On or near Carthusian Street","E01000001","City of London 001A","Other theft","Investigation complete; no suspect identified",NA
"18","8f6a51a843af1f58eb61e3e2109efcfc2f1b731b88c597bd90f026b72fe3a392","2016-01","City of London Police","City of London Police",-0.098062,51.517577,"On or near Montague Street","E01000001","City of London 001A","Other theft","Investigation complete; no suspect identified",NA
"19","c6017214c4ceb12d6dd321d56359cbdbc4ed41470b3d20b9b48e9bb94bbef94c","2016-01","City of London Police","City of London Police",-0.097601,51.520699,"On or near Carthusian Street","E01000001","City of London 001A","Other theft","Investigation complete; no suspect identified",NA
"20","c819bb7ec43cc63051869f0e7939f8d3930edf2f97b7267bb31d58485f6ef149","2016-01","City of London Police","City of London Police",-0.097277,51.515307,"On or near St Martin'S Le Grand","E01000001","City of London 001A","Other theft","Investigation complete; no suspect identified",NA
"21","f4e522655b95f06858e31a06950dd720265ec9b00fab2a907bac7f3a5928f9e9","2016-01","City of London Police","City of London Police",-0.097223,51.515225,"On or near St Martin'S Le Grand","E01000001","City of London 001A","Shoplifting","Investigation complete; no suspect identified",NA
"22","885b445965eafae992258205f0cc4487d6f89303db1b2c97322bc50cfff498b6","2016-01","City of London Police","City of London Police",-0.097334,51.521567,"On or near Fann Street","E01000001","City of London 001A","Theft from the person","Investigation complete; no suspect identified",NA
"23","9a6a2dc1ddf37b44867702c352982ca28ed7883acd085d9cf9b7aae3c7d18222","2016-01","City of London Police","City of London Police",-0.098572,51.516767,"On or near King Edward Street","E01000001","City of London 001A","Violence and sexual offences","Offender sent to prison",NA
"24","","2016-01","City of London Police","City of London Police",-0.093558,51.516703,"On or near Police Station","E01000002","City of London 001B","Anti-social behaviour","",NA
"25","","2016-01","City of London Police","City of London Police",-0.093057,51.520085,"On or near Theatre/Concert Hall","E01000002","City of London 001B","Anti-social behaviour","",NA
"26","","2016-01","City of London Police","City of London Police",-0.093948,51.518077,"On or near Monkwell Square","E01000002","City of London 001B","Anti-social behaviour","",NA
"27","","2016-01","City of London Police","City of London Police",-0.091649,51.518938,"On or near Park/Open Space","E01000002","City of London 001B","Anti-social behaviour","",NA
"28","","2016-01","City of London Police","City of London Police",-0.093948,51.518077,"On or near Monkwell Square","E01000002","City of London 001B","Anti-social behaviour","",NA
"29","8eb5196bdb53aea5c5a76f81a5981e43051ac9009d3edeef4fd22d7fec7b81e4","2016-01","City of London Police","City of London Police",-0.093933,51.519812,"On or near Conference/Exhibition Centre","E01000002","City of London 001B","Criminal damage and arson","Investigation complete; no suspect identified",NA
"30","13fa9d471ac287119846120c02258cdea8f9b3688bd3ec34deccacbca038d029","2016-01","City of London Police","City of London Police",-0.0954,51.515753,"On or near Conference/Exhibition Centre","E01000002","City of London 001B","Drugs","Offender given suspended prison sentence",NA
"31","75e335d991a5eb085420479a9d038ad00c8e3fa9a2d223b053908482a8977f8e","2016-01","City of London Police","City of London Police",-0.092628,51.51792,"On or near St Alphage Garden","E01000002","City of London 001B","Drugs","Offender given a caution",NA
"32","ffc67bb71ebd4f78247ae8423428bd734c29800331d73d623ca00dcfe1c6f2bc","2016-01","City of London Police","City of London Police",-0.090348,51.519358,"On or near Moor Lane","E01000002","City of London 001B","Other theft","Investigation complete; no suspect identified",NA
"33","dff8648b2aca7cadaa03b2702bb871df41281e800a800188e560289de54a9dfb","2016-01","City of London Police","City of London Police",-0.0954,51.515753,"On or near Conference/Exhibition Centre","E01000002","City of London 001B","Public order","Investigation complete; no suspect identified",NA
"34","a046937c0df990abea2428bb5d2c848eb784fe27c1dfaf251b185b4fda761c4e","2016-01","City of London Police","City of London Police",-0.0954,51.515753,"On or near Conference/Exhibition Centre","E01000002","City of London 001B","Public order","Status update unavailable",NA
"35","d5d0cd2c41bed3deb4a2b20f63abad3f6ba5bc230719edd46995575cc49a1625","2016-01","City of London Police","City of London Police",-0.088621,51.518619,"On or near Moorfields","E01000002","City of London 001B","Shoplifting","Court result unavailable",NA
"36","0fe764073a9b3e50c64e3a9b5339c1ec2e6bfb657b2f6e0f4d9a9c1f75243ea8","2016-01","City of London Police","City of London Police",-0.094468,51.521853,"On or near Golden Lane","E01000003","City of London 001C","Possession of weapons","Offender given a caution",NA
"37","","2016-01","City of London Police","City of London Police",-0.073254,51.512856,"On or near Mansell Street","E01000005","City of London 001E","Anti-social behaviour","",NA
"38","","2016-01","City of London Police","City of London Police",-0.077224,51.516122,"On or near Shopping Area","E01000005","City of London 001E","Anti-social behaviour","",NA
"39","","2016-01","City of London Police","City of London Police",-0.077451,51.515523,"On or near White Kennett Street","E01000005","City of London 001E","Anti-social behaviour","",NA
"40","","2016-01","City of London Police","City of London Police",-0.07627,51.515504,"On or near Gravel Lane","E01000005","City of London 001E","Anti-social behaviour","",NA
"41","","2016-01","City of London Police","City of London Police",-0.073254,51.512856,"On or near Mansell Street","E01000005","City of London 001E","Anti-social behaviour","",NA
"42","","2016-01","City of London Police","City of London Police",-0.075508,51.514763,"On or near Pedestrian Subway","E01000005","City of London 001E","Anti-social behaviour","",NA
"43","","2016-01","City of London Police","City of London Police",-0.075722,51.511053,"On or near Crescent","E01000005","City of London 001E","Anti-social behaviour","",NA
"44","d4a58fe769351499e877efa0b7aea98db8eb306b7fc1b5020cb01d1083ff9949","2016-01","City of London Police","City of London Police",-0.07433,51.513647,"On or near Little Somerset Street","E01000005","City of London 001E","Drugs","Offender given suspended prison sentence",NA
"45","102fe9c82cbc1aa8ceddbef7762c7a14b6756492f9d41a3736ce4acc3cc05185","2016-01","City of London Police","City of London Police",-0.075508,51.514763,"On or near Pedestrian Subway","E01000005","City of London 001E","Drugs","Offender fined",NA
"46","056f604b27e54331ee9331c8d1531f281451b150856f81c3a60ca3237c2f2d3f","2016-01","City of London Police","City of London Police",-0.077224,51.516122,"On or near Shopping Area","E01000005","City of London 001E","Drugs","Offender fined",NA
"47","f4bb53c36d33efa06c08c158c59eafbf6952e87a19e1f0ed0996022716ea2983","2016-01","City of London Police","City of London Police",-0.075508,51.514763,"On or near Pedestrian Subway","E01000005","City of London 001E","Drugs","Offender fined",NA
"48","a5a69a5caec68d9ff972c2c13424023a99a6a805c1a17155ec6032bf3c3d5aad","2016-01","City of London Police","City of London Police",-0.075508,51.514763,"On or near Pedestrian Subway","E01000005","City of London 001E","Drugs","Court result unavailable",NA
"49","b8ed2c0dc3c2920530063aa3ad8704cae15c29bdb29cdb57d2743d0c1d3ac1e7","2016-01","City of London Police","City of London Police",-0.077224,51.516122,"On or near Shopping Area","E01000005","City of London 001E","Other theft","Investigation complete; no suspect identified",NA
"50","85e27c5c50384c9a61d74eb0db62aa26e88ba90ac9a42c243717de4ca10c2297","2016-01","City of London Police","City of London Police",-0.077451,51.515523,"On or near White Kennett Street","E01000005","City of London 001E","Other theft","Investigation complete; no suspect identified",NA
"51","c515cfcab088b8b35cb6c6c76310f9de3b335756f65025ae54bc3e8e0aefc452","2016-01","City of London Police","City of London Police",-0.073254,51.512856,"On or near Mansell Street","E01000005","City of London 001E","Other theft","Local resolution",NA
"52","938a0bc65413c927bc91dd0ea941d84470adb1273e8e68e898954ebe865c23a0","2016-01","City of London Police","City of London Police",-0.075844,51.511594,"On or near Crosswall","E01000005","City of London 001E","Other theft","Investigation complete; no suspect identified",NA
"53","97f866dd88af746c5910d6ab7e94dad898f84d28aa66dd5dbf9819428129b6c0","2016-01","City of London Police","City of London Police",-0.07608,51.511445,"On or near America Square","E01000005","City of London 001E","Other theft","Investigation complete; no suspect identified",NA
"54","1eac0c614e3f99c4a70b89f418c8d147355318610ca2287e96eb75d4902f5029","2016-01","City of London Police","City of London Police",-0.077451,51.515523,"On or near White Kennett Street","E01000005","City of London 001E","Other theft","Investigation complete; no suspect identified",NA
"55","964c62ed4367a63d5882143cbc3555fde310d0aa95a29750081343b5c9c82d48","2016-01","City of London Police","City of London Police",-0.075389,51.511775,"On or near Minories","E01000005","City of London 001E","Other theft","Investigation complete; no suspect identified",NA
"56","6eff4cf5ce8dd0981f4d0d5ce3ffc4b2ed47fa01cf37803288daabfcc8cc9615","2016-01","City of London Police","City of London Police",-0.075722,51.511053,"On or near Crescent","E01000005","City of London 001E","Possession of weapons","Investigation complete; no suspect identified",NA
"57","3f745bfc88de0b3a907dfbda6999ab02aa24a1ca9670a2d4e36f54aa0d30687c","2016-01","City of London Police","City of London Police",-0.07627,51.515504,"On or near Gravel Lane","E01000005","City of London 001E","Public order","Offender given a caution",NA
"58","5cded40e19d2f073648ca453c7cf69d54461ec13caef03bde96e914ce46b196f","2016-01","City of London Police","City of London Police",-0.074793,51.511208,"On or near Pedestrian Subway","E01000005","City of London 001E","Public order","Investigation complete; no suspect identified",NA
"59","450e58cdf647112e52312eafad3178d553def049002239c239519b2653a7b1bb","2016-01","City of London Police","City of London Police",-0.073254,51.512856,"On or near Mansell Street","E01000005","City of London 001E","Public order","Formal action is not in the public interest",NA
"60","b0f9f1a371a53073ee6a2d600a578e7f5a5ab7bc92e8972c20be37997185e97f","2016-01","City of London Police","City of London Police",-0.078393,51.515728,"On or near Clothier Street","E01000005","City of London 001E","Public order","Investigation complete; no suspect identified",NA
"61","f4d9d405b5353cd186d93485e90207fbb8b054b09148b78b220d97e49e345bf8","2016-01","City of London Police","City of London Police",-0.073515,51.510414,"On or near Parking Area","E01000005","City of London 001E","Vehicle crime","Investigation complete; no suspect identified",NA
"62","dcc0af23973e7dbc2d3b2780ba850c92cc08bd756f6f6c76a707d65c97cf4d66","2016-01","City of London Police","City of London Police",-0.07433,51.513647,"On or near Little Somerset Street","E01000005","City of London 001E","Violence and sexual offences","Investigation complete; no suspect identified",NA
"63","5f15c8d01d34454f5089d3f906ef7fe7e60164bceb0e3ff62f5b0ff67d7d2202","2016-01","City of London Police","City of London Police",-0.075508,51.514763,"On or near Pedestrian Subway","E01000005","City of London 001E","Violence and sexual offences","Court result unavailable",NA
"64","935a191992590231ee2e77c4325f9f865154920e1e9c45acf67470afae971818","2016-01","City of London Police","City of London Police",-0.075196,51.512609,"On or near St Clare Street","E01000005","City of London 001E","Violence and sexual offences","Unable to prosecute suspect",NA
"65","56746632eea0cc98293e3daa044e3717a536a6e8220cbb301a511ef1fbb39001","2016-01","City of London Police","City of London Police",-0.073515,51.510414,"On or near Parking Area","E01000005","City of London 001E","Violence and sexual offences","Investigation complete; no suspect identified",NA
"66","6e2f47d6f2266a0aa0ed52d9894563cf6ef02b45310615ba2b5f8f10482cefbc","2016-01","City of London Police","City of London Police",-0.075389,51.511775,"On or near Minories","E01000005","City of London 001E","Violence and sexual offences","Unable to prosecute suspect",NA
"67","f2087e93bda4d9a12a23e3c1d83f3a86ebdedb5d53bb500d61a4563b3dcedcfc","2016-01","City of London Police","City of London Police",-0.07608,51.511445,"On or near America Square","E01000005","City of London 001E","Violence and sexual offences","Unable to prosecute suspect",NA
"68","00583cbc0f2fcd880d829e92b6f6c8d15e5e3f20cfbcc748f83a6abd488a8a23","2016-01","City of London Police","City of London Police",-0.073254,51.512856,"On or near Mansell Street","E01000005","City of London 001E","Violence and sexual offences","Unable to prosecute suspect",NA
"69","9a0874c4253249e9b19acf901553a1b2b283306a7d4e8e12ad5970d6d51a1812","2016-01","City of London Police","City of London Police",-0.077596,51.515849,"On or near Artizan Street","E01000005","City of London 001E","Violence and sexual offences","Offender given a caution",NA
"70","066e0e0a0e9e5d23283f8063afb4df33d183e6ab31cbca62acdfbc57e06154fb","2016-01","City of London Police","City of London Police",-0.077224,51.516122,"On or near Shopping Area","E01000005","City of London 001E","Other crime","Offender sent to prison",NA
"71","","2016-01","City of London Police","City of London Police",-0.082628,51.518189,"On or near Sun Street Passage","E01032739","City of London 001F","Anti-social behaviour","",NA
"72","","2016-01","City of London Police","City of London Police",-0.097213,51.511322,"On or near Castle Baynard Street","E01032739","City of London 001F","Anti-social behaviour","",NA
"73","","2016-01","City of London Police","City of London Police",-0.090203,51.511118,"On or near Scott'S Yard","E01032739","City of London 001F","Anti-social behaviour","",NA
"74","","2016-01","City of London Police","City of London Police",-0.089536,51.516719,"On or near Nun Court","E01032739","City of London 001F","Anti-social behaviour","",NA
"75","","2016-01","City of London Police","City of London Police",-0.089536,51.516719,"On or near Nun Court","E01032739","City of London 001F","Anti-social behaviour","",NA
"76","","2016-01","City of London Police","City of London Police",-0.078856,51.518433,"On or near Artillery Lane","E01032739","City of London 001F","Anti-social behaviour","",NA
"77","","2016-01","City of London Police","City of London Police",-0.093493,51.513447,"On or near Bow Lane","E01032739","City of London 001F","Anti-social behaviour","",NA
"78","","2016-01","City of London Police","City of London Police",-0.078308,51.518091,"On or near Widegate Street","E01032739","City of London 001F","Anti-social behaviour","",NA
"79","","2016-01","City of London Police","City of London Police",-0.094206,51.51121,"On or near Little Trinity Lane","E01032739","City of London 001F","Anti-social behaviour","",NA
"80","","2016-01","City of London Police","City of London Police",-0.088843,51.509532,"On or near Parking Area","E01032739","City of London 001F","Anti-social behaviour","",NA
"81","","2016-01","City of London Police","City of London Police",-0.100748,51.515031,"On or near Warwick Lane","E01032739","City of London 001F","Anti-social behaviour","",NA
"82","","2016-01","City of London Police","City of London Police",-0.08315,51.510913,"On or near Rood Lane","E01032739","City of London 001F","Anti-social behaviour","",NA
"83","","2016-01","City of London Police","City of London Police",-0.088872,51.51089,"On or near Laurence Pountney Hill","E01032739","City of London 001F","Anti-social behaviour","",NA
"84","","2016-01","City of London Police","City of London Police",-0.097213,51.511322,"On or near Castle Baynard Street","E01032739","City of London 001F","Anti-social behaviour","",NA
"85","","2016-01","City of London Police","City of London Police",-0.080234,51.516855,"On or near Devonshire Row","E01032739","City of London 001F","Anti-social behaviour","",NA
"86","","2016-01","City of London Police","City of London Police",-0.080034,51.513389,"On or near Leadenhall Street","E01032739","City of London 001F","Anti-social behaviour","",NA
"87","","2016-01","City of London Police","City of London Police",-0.078488,51.517923,"On or near Middlesex Street","E01032739","City of London 001F","Anti-social behaviour","",NA
"88","","2016-01","City of London Police","City of London Police",-0.085257,51.5112,"On or near Talbot Court","E01032739","City of London 001F","Anti-social behaviour","",NA
"89","","2016-01","City of London Police","City of London Police",-0.079786,51.517576,"On or near Police Station","E01032739","City of London 001F","Anti-social behaviour","",NA
"90","","2016-01","City of London Police","City of London Police",-0.079613,51.517231,"On or near New Street","E01032739","City of London 001F","Anti-social behaviour","",NA
"91","","2016-01","City of London Police","City of London Police",-0.082722,51.518029,"On or near Pedestrian Subway","E01032739","City of London 001F","Anti-social behaviour","",NA
"92","","2016-01","City of London Police","City of London Police",-0.078484,51.51768,"On or near Catherine Wheel Alley","E01032739","City of London 001F","Anti-social behaviour","",NA
"93","","2016-01","City of London Police","City of London Police",-0.097213,51.511322,"On or near Castle Baynard Street","E01032739","City of London 001F","Anti-social behaviour","",NA
"94","","2016-01","City of London Police","City of London Police",-0.097213,51.511322,"On or near Castle Baynard Street","E01032739","City of London 001F","Anti-social behaviour","",NA
"95","","2016-01","City of London Police","City of London Police",-0.090203,51.511118,"On or near Scott'S Yard","E01032739","City of London 001F","Anti-social behaviour","",NA
"96","","2016-01","City of London Police","City of London Police",-0.092865,51.510182,"On or near Parking Area","E01032739","City of London 001F","Anti-social behaviour","",NA
"97","","2016-01","City of London Police","City of London Police",-0.084967,51.512598,"On or near Bell Inn Yard","E01032739","City of London 001F","Anti-social behaviour","",NA
"98","","2016-01","City of London Police","City of London Police",-0.083993,51.51144,"On or near Philpot Lane","E01032739","City of London 001F","Anti-social behaviour","",NA
"99","","2016-01","City of London Police","City of London Police",-0.102411,51.512117,"On or near Queen Victoria Street","E01032739","City of London 001F","Anti-social behaviour","",NA
"100","","2016-01","City of London Police","City of London Police",-0.09071,51.513132,"On or near Queen Victoria Street","E01032739","City of London 001F","Anti-social behaviour","",NA
"101","","2016-01","City of London Police","City of London Police",-0.078488,51.517923,"On or near Middlesex Street","E01032739","City of London 001F","Anti-social behaviour","",NA
"102","","2016-01","City of London Police","City of London Police",-0.079786,51.517576,"On or near Police Station","E01032739","City of London 001F","Anti-social behaviour","",NA
"103","","2016-01","City of London Police","City of London Police",-0.097645,51.515142,"On or near St Martin'S Le Grand","E01032739","City of London 001F","Anti-social behaviour","",NA
"104","","2016-01","City of London Police","City of London Police",-0.097645,51.515142,"On or near St Martin'S Le Grand","E01032739","City of London 001F","Anti-social behaviour","",NA
"105","","2016-01","City of London Police","City of London Police",-0.078488,51.517923,"On or near Middlesex Street","E01032739","City of London 001F","Anti-social behaviour","",NA
"106","25827ad0b35b809dfecdb366357c92283a047b824c9b4b891bd52c05ea6569f4","2016-01","City of London Police","City of London Police",-0.088995,51.512088,"On or near St Swithin'S Lane","E01032739","City of London 001F","Bicycle theft","Investigation complete; no suspect identified",NA
"107","8d8f12cfbd60810dd40723b50b066e5224160c3df6883cd6fe439c2af8849620","2016-01","City of London Police","City of London Police",-0.088473,51.518374,"On or near Moor Place","E01032739","City of London 001F","Bicycle theft","Investigation complete; no suspect identified",NA
"108","b0c15acea87ae36f708be9597a0f5b96a5faf0ea6febd341c2c13e23d0c2fda0","2016-01","City of London Police","City of London Police",-0.077637,51.511453,"On or near Crutched Friars","E01032739","City of London 001F","Bicycle theft","Investigation complete; no suspect identified",NA
"109","bdb40e2c903f95cdd5de06da5923f0ce5c0eed3645d450c13c5e3d87854b598d","2016-01","City of London Police","City of London Police",-0.08904,51.512745,"On or near Mansion House Place","E01032739","City of London 001F","Bicycle theft","Investigation complete; no suspect identified",NA
"110","5da4fadbc362576e9af3d6ed0523a23644a75c3c7099efab33a57c8394912fc8","2016-01","City of London Police","City of London Police",-0.085149,51.517196,"On or near Blomfield Street","E01032739","City of London 001F","Bicycle theft","Investigation complete; no suspect identified",NA
"111","3c4f6cdb1c69bad8311ed44bb60e7c46bc09016211969c72ae47ea855363813f","2016-01","City of London Police","City of London Police",-0.082571,51.514753,"On or near Great St Helen'S","E01032739","City of London 001F","Bicycle theft","Investigation complete; no suspect identified",NA
"112","5a695ca78896a0f23145904ff7e8c7275e3bf0fc4dc1442533012b3674b85040","2016-01","City of London Police","City of London Police",-0.080318,51.520678,"On or near Primrose Street","E01032739","City of London 001F","Bicycle theft","Investigation complete; no suspect identified",NA
"113","6c473529b0b7ab69b3be556472c14d44206320cf098cb2adaee096fdb3c40ffc","2016-01","City of London Police","City of London Police",-0.086278,51.509876,"On or near Fish Street Hill","E01032739","City of London 001F","Bicycle theft","Investigation complete; no suspect identified",NA
"114","80e9b87ae12825301072a30a6f17a6744312b23117c8a1d15e20c2683b4d5076","2016-01","City of London Police","City of London Police",-0.084723,51.514986,"On or near Conference/Exhibition Centre","E01032739","City of London 001F","Burglary","Investigation complete; no suspect identified",NA
"115","5d1417b8bc36a3606a2e08b3a13a330fb4df86e69adc79350accab39871459b8","2016-01","City of London Police","City of London Police",-0.079786,51.517576,"On or near Police Station","E01032739","City of London 001F","Burglary","Investigation complete; no suspect identified",NA
"116","d8cdb98cdc0ae1c31d55081652a52389aaceda01d4e308b4387bac58d486fe7a","2016-01","City of London Police","City of London Police",-0.101452,51.51265,"On or near St Andrew'S Hill","E01032739","City of London 001F","Burglary","Investigation complete; no suspect identified",NA
"117","112b9e870b57f34927c6471a7fcc379e7d35771d5572f58dad226d76421c637b","2016-01","City of London Police","City of London Police",-0.083296,51.517058,"On or near Old Broad Street","E01032739","City of London 001F","Burglary","Investigation complete; no suspect identified",NA
"118","cd5cfef8974a73de2175dfacc44b87e97f166b376c3dd6b40f00afa1c1e6f948","2016-01","City of London Police","City of London Police",-0.092719,51.512652,"On or near Queen Victoria Street","E01032739","City of London 001F","Burglary","Investigation complete; no suspect identified",NA
"119","885c37aa00537ac188b0b711308384b071f3485da2a8202d557368fbea705569","2016-01","City of London Police","City of London Police",-0.077637,51.511453,"On or near Crutched Friars","E01032739","City of London 001F","Burglary","Investigation complete; no suspect identified",NA
"120","145c7bee9ad7e8c6cd475e31128c4c07f9ac0c3169682a5d6c6d28ff756eed57","2016-01","City of London Police","City of London Police",-0.09172,51.513454,"On or near Supermarket","E01032739","City of London 001F","Burglary","Offender given a caution",NA
"121","31ceb7436060739bba77397bdb3a4735edf6d4db09030699a6abb8d150543bf0","2016-01","City of London Police","City of London Police",-0.101575,51.513857,"On or near Ludgate Hill","E01032739","City of London 001F","Burglary","Investigation complete; no suspect identified",NA
"122","11e73e33b7e92417eff067676f91f0f72f5455358c97efa43d39bb1471448621","2016-01","City of London Police","City of London Police",-0.101575,51.513857,"On or near Ludgate Hill","E01032739","City of London 001F","Burglary","Investigation complete; no suspect identified",NA
"123","c6c6f64f0f9aada1a1c110f0a276cb360ba766b7aac9ec2007d9a5bc716aaef9","2016-01","City of London Police","City of London Police",-0.079786,51.517576,"On or near Police Station","E01032739","City of London 001F","Criminal damage and arson","Formal action is not in the public interest",NA
"124","dbeacd1ab7f654b67915744366d63c4f422e373a76c55bb0c396d3dcea75663c","2016-01","City of London Police","City of London Police",-0.093198,51.510834,"On or near Upper Thames Street","E01032739","City of London 001F","Criminal damage and arson","Investigation complete; no suspect identified",NA
"125","8e1b0ae50f08ba2bd2fd67f4a9c250824c638b2fa5963226238f551c01d6d78e","2016-01","City of London Police","City of London Police",-0.093791,51.509414,"On or near Southwark Bridge Road","E01032739","City of London 001F","Criminal damage and arson","Offender given a caution",NA
"126","e0eb54ff2fff9df27d043cee0b3fe961e2ff4e873e1e1b75e1580259a1f77b88","2016-01","City of London Police","City of London Police",-0.081091,51.516014,"On or near Camomile Street","E01032739","City of London 001F","Criminal damage and arson","Unable to prosecute suspect",NA
"127","a7178c949753480faeaf8da85c2e35d621e2a596b4ce2e087766c02fc29103a0","2016-01","City of London Police","City of London Police",-0.079786,51.517576,"On or near Police Station","E01032739","City of London 001F","Criminal damage and arson","Offender given a caution",NA
"128","cf09161f14514995d2cdaec4274d2e5f85e0e3ae508fb7fa08959f90f5a8f331","2016-01","City of London Police","City of London Police",-0.09071,51.513132,"On or near Queen Victoria Street","E01032739","City of London 001F","Criminal damage and arson","Investigation complete; no suspect identified",NA
"129","f216a4525da8633ab3757ab0c179ad72d17f695ab8713f7d426089f336cece42","2016-01","City of London Police","City of London Police",-0.080728,51.511611,"On or near Supermarket","E01032739","City of London 001F","Criminal damage and arson","Investigation complete; no suspect identified",NA
"130","caf0115784e37bf59a849b2ed88da2790df5f400af63ec7d90dd5a55355540f3","2016-01","City of London Police","City of London Police",-0.08158,51.52051,"On or near Pindar Street","E01032739","City of London 001F","Criminal damage and arson","Investigation complete; no suspect identified",NA
"131","9e36a277b64f004bae3815fa316d202c6ba2085721b72294a16669a51a7ebc0b","2016-01","City of London Police","City of London Police",-0.09071,51.513132,"On or near Queen Victoria Street","E01032739","City of London 001F","Criminal damage and arson","Unable to prosecute suspect",NA
"132","27b045966de1ad0ce640bf254b4c5ee8da13cf7ca5074c3e9627074abdb828a6","2016-01","City of London Police","City of London Police",-0.079786,51.517576,"On or near Police Station","E01032739","City of London 001F","Drugs","Court result unavailable",NA
"133","b11abd3caba5f367d3b558f86233c5083232c6f7948dd91dd53aa22eb47800a3","2016-01","City of London Police","City of London Police",-0.082571,51.514753,"On or near Great St Helen'S","E01032739","City of London 001F","Drugs","Offender given a caution",NA
"134","42d400db528efb8b45a424987063a176a2ba6b1c0b9883117bc219d7a357f245","2016-01","City of London Police","City of London Police",-0.084095,51.5169,"On or near New Broad Street","E01032739","City of London 001F","Drugs","Offender given a drugs possession warning",NA
"135","498882e567c0aee4c2e357a805051ea7ff6f92de4d5dfd2e7116e6be4a73f99c","2016-01","City of London Police","City of London Police",-0.082811,51.510054,"On or near Idol Lane","E01032739","City of London 001F","Drugs","Offender fined",NA
"136","c3e751bb3e9822f6156cab7a550b5bde826ddf4d97099a12543e713960095095","2016-01","City of London Police","City of London Police",-0.084618,51.512682,"On or near Gracechurch Street","E01032739","City of London 001F","Drugs","Offender fined",NA
"137","e07ea94704b97ae917665b5441380f94ffdcc6f8808ad6e9c5ec87cfba75eaf4","2016-01","City of London Police","City of London Police",-0.081938,51.513007,"On or near Lime Street","E01032739","City of London 001F","Drugs","Investigation complete; no suspect identified",NA
"138","83ac49f5b5852bdfd1f557ee1a3f11d9c1c108cb031d6f5fad34df0e456d65dc","2016-01","City of London Police","City of London Police",-0.082571,51.514753,"On or near Great St Helen'S","E01032739","City of London 001F","Drugs","Offender given penalty notice",NA
"139","76fa75ce630f325d4b33b7b409730f7ac912144d908473768e14bbe731443e25","2016-01","City of London Police","City of London Police",-0.079786,51.517576,"On or near Police Station","E01032739","City of London 001F","Drugs","Offender given a caution",NA
"140","3c73a2bfe34fc8357e6ed60b2d3296c868e24f767bef0d3ff8486a2b1394b6ad","2016-01","City of London Police","City of London Police",-0.079786,51.517576,"On or near Police Station","E01032739","City of London 001F","Drugs","Offender otherwise dealt with",NA
"141","a718fcf0c8df5bfc3a932fcb55f0966082243aba7bb63daccbb5f869bb0e766b","2016-01","City of London Police","City of London Police",-0.082571,51.514753,"On or near Great St Helen'S","E01032739","City of London 001F","Drugs","Status update unavailable",NA
"142","bbb1bb566593fbc9994e30719c3c65362b0638cbdad58b5cd324549f89180f99","2016-01","City of London Police","City of London Police",-0.080573,51.516006,"On or near Outwich Street","E01032739","City of London 001F","Drugs","Offender given a drugs possession warning",NA
"143","ce72ce3d0c2deb526759fc25999605bb5773a0cd4650c4c4fabe5a945a94e471","2016-01","City of London Police","City of London Police",-0.085149,51.517196,"On or near Blomfield Street","E01032739","City of London 001F","Drugs","Unable to prosecute suspect",NA
"144","7df80015e88be8ff7c2b92c8064c53ede2d131281e98f248a55dcaf9680e6635","2016-01","City of London Police","City of London Police",-0.092719,51.512652,"On or near Queen Victoria Street","E01032739","City of London 001F","Drugs","Court result unavailable",NA
"145","f9c2235325358199c39273f24643cf544daa7514a0245d1de508c58cc432652a","2016-01","City of London Police","City of London Police",-0.080244,51.511828,"On or near Mark Lane","E01032739","City of London 001F","Drugs","Offender given a caution",NA
"146","c53627ce1e4d2338976b7b932e04fe9ed83777dc6632866bdd59efd600d2b95b","2016-01","City of London Police","City of London Police",-0.078665,51.50995,"On or near Muscovy Street","E01032739","City of London 001F","Drugs","Offender given a caution",NA
"147","efb278472f9a9a14131d67c7eb62aaa3b58e19541af294cf3328135778f5b616","2016-01","City of London Police","City of London Police",-0.096363,51.513377,"On or near New Change","E01032739","City of London 001F","Drugs","Court result unavailable",NA
"148","b862eb9750b40247291384fdcddc9872a517d9b53d59ac7f3e3df862236953a2","2016-01","City of London Police","City of London Police",-0.094758,51.512829,"On or near Nightclub","E01032739","City of London 001F","Drugs","Offender given a caution",NA
"149","b277d2f9853bc7134612dadff1fcc0a4fde9eef31345db295ac1e4f419deb1e6","2016-01","City of London Police","City of London Police",-0.087581,51.511435,"On or near Nicholas Lane","E01032739","City of London 001F","Drugs","Offender given a drugs possession warning",NA
"150","f7bbced8bee637ab4113892b025835b51e1e32417eca9a4a6bb34d9ba149acac","2016-01","City of London Police","City of London Police",-0.094758,51.512829,"On or near Nightclub","E01032739","City of London 001F","Drugs","Offender given a caution",NA
"151","f25abda419d140892494a58d5f7650d6e831757630ef2df639e232a501136f8a","2016-01","City of London Police","City of London Police",-0.104494,51.509848,"On or near A201","E01032739","City of London 001F","Drugs","Offender sent to prison",NA
"152","65677639c77f98a9daceb223c04239492f6a0b1c0186f3fe892fc2cada12d7c0","2016-01","City of London Police","City of London Police",-0.079398,51.516508,"On or near Devonshire Square","E01032739","City of London 001F","Other theft","Investigation complete; no suspect identified",NA
"153","fc64024e2cd4fff34e64e755bc61a05556d28315d91b11192fe840065a5a67eb","2016-01","City of London Police","City of London Police",-0.079011,51.509614,"On or near Pedestrian Subway","E01032739","City of London 001F","Other theft","Investigation complete; no suspect identified",NA
"154","fe0ddd67e895d96a5b75a05b58c90bf057ac767bfba871f050014c4f2fcb571a","2016-01","City of London Police","City of London Police",-0.081549,51.511625,"On or near Mincing Lane","E01032739","City of London 001F","Other theft","Investigation complete; no suspect identified",NA
"155","b4e7456bbad54081534238d1b00fa99eed1af84b2d7e10dca6478bc3c3174996","2016-01","City of London Police","City of London Police",-0.084105,51.515281,"On or near Conference/Exhibition Centre","E01032739","City of London 001F","Other theft","Investigation complete; no suspect identified",NA
"156","11f384af44406dedfe43252c9e9093894aca80accbd94729a531149479c6266f","2016-01","City of London Police","City of London Police",-0.084701,51.50932,"On or near Lower Thames Street","E01032739","City of London 001F","Other theft","Investigation complete; no suspect identified",NA
"157","e37710cdebe0523e68650d86e016306c3c5010bc9931e56971d9cc504b476f5a","2016-01","City of London Police","City of London Police",-0.084701,51.50932,"On or near Lower Thames Street","E01032739","City of London 001F","Other theft","Investigation complete; no suspect identified",NA
"158","4d5b961f93a6c7c70f34c64abb1fa39609840ec2281e8258d886aa5bd2667b9f","2016-01","City of London Police","City of London Police",-0.094628,51.514203,"On or near Cheapside","E01032739","City of London 001F","Other theft","Investigation complete; no suspect identified",NA
"159","b8eaad0a1c57a44176a8a31b8e1c0435bff7153877ee7c3bf3deabfed7493c10","2016-01","City of London Police","City of London Police",-0.092321,51.513194,"On or near Pancras Lane","E01032739","City of London 001F","Other theft","Investigation complete; no suspect identified",NA
"160","712111c1b83e1cd6510e72bf7d8caade641e8df5eef9fca38122cb64d7f26e94","2016-01","City of London Police","City of London Police",-0.090142,51.514292,"On or near Conference/Exhibition Centre","E01032739","City of London 001F","Other theft","Investigation complete; no suspect identified",NA
"161","bc7998b339761698c126d5de8de5a62f228cd696f88658929c3358fbd2c46540","2016-01","City of London Police","City of London Police",-0.094758,51.512829,"On or near Nightclub","E01032739","City of London 001F","Other theft","Investigation complete; no suspect identified",NA
"162","754345ef727ec05d8e2a03f91094af535fa76dba69718c24563bbd26bc6f7eb6","2016-01","City of London Police","City of London Police",-0.083242,51.512165,"On or near Lime Street","E01032739","City of London 001F","Other theft","Investigation complete; no suspect identified",NA
"163","2df6f856bca6c389479db341b14681eafc048449d394a418f4fb2ceffbf6cb60","2016-01","City of London Police","City of London Police",-0.08162,51.516814,"On or near Alderman'S Walk","E01032739","City of London 001F","Other theft","Investigation complete; no suspect identified",NA
"164","cbce0a2cd78962a9e4032451ef0b795e2039085ba7b1617f5645c0eed3f70b2b","2016-01","City of London Police","City of London Police",-0.084618,51.512682,"On or near Gracechurch Street","E01032739","City of London 001F","Other theft","Investigation complete; no suspect identified",NA
"165","d0e28e29538e4b494e82129f37b512fe6e61ca67e8c18000ee6edd0e65782cb3","2016-01","City of London Police","City of London Police",-0.079011,51.509614,"On or near Pedestrian Subway","E01032739","City of London 001F","Other theft","Investigation complete; no suspect identified",NA
"166","ca62b22cba5132c81cc8d59ab3bdd3c025cd8d12b10f04bfa5ce411d7d856abf","2016-01","City of London Police","City of London Police",-0.087118,51.513199,"On or near Nightclub","E01032739","City of London 001F","Other theft","Investigation complete; no suspect identified",NA
"167","756d86d1d6c71f90d1bf8f4b75023f81bfe5590f0a98d4c5e54cc37ed470dc34","2016-01","City of London Police","City of London Police",-0.09204,51.515087,"On or near Gresham Street","E01032739","City of London 001F","Other theft","Investigation complete; no suspect identified",NA
"168","119cfc7747546a2663ea2ee5ef865490fd544ff35bed41172cb45258371a1d3d","2016-01","City of London Police","City of London Police",-0.100179,51.514158,"On or near Shopping Area","E01032739","City of London 001F","Other theft","Investigation complete; no suspect identified",NA
"169","0fcbd9f97ad50670c5505b46816d4c6683db3291771adacf6d55558487a5b986","2016-01","City of London Police","City of London Police",-0.084566,51.51769,"On or near Blomfield Street","E01032739","City of London 001F","Other theft","Investigation complete; no suspect identified",NA
"170","a51c067f7f85e47b888b353fe655294334b9160cc4159c654a8fa22b81ad5793","2016-01","City of London Police","City of London Police",-0.082965,51.516351,"On or near Wormwood Street","E01032739","City of London 001F","Other theft","Investigation complete; no suspect identified",NA
"171","8501eb9318ea7ca239d03999947b51fe074761de49445ee4074194db034cc78a","2016-01","City of London Police","City of London Police",-0.096643,51.512545,"On or near Distaff Lane","E01032739","City of London 001F","Other theft","Investigation complete; no suspect identified",NA
"172","44d69622282c7dcdb365553e9027dc45c518e4f55fe3f9abac6c8c780e7d0f32","2016-01","City of London Police","City of London Police",-0.081912,51.51637,"On or near Conference/Exhibition Centre","E01032739","City of London 001F","Other theft","Investigation complete; no suspect identified",NA
"173","beb834f8112ee395725e38a104acdd56ee0643463c1d6fda0ea3b4ce49f8d66d","2016-01","City of London Police","City of London Police",-0.084967,51.512598,"On or near Bell Inn Yard","E01032739","City of London 001F","Other theft","Investigation complete; no suspect identified",NA
"174","18341a39ce4f672c49328286ba7609aae141e21fe182ec8d5a81a8d7c74e19e8","2016-01","City of London Police","City of London Police",-0.088995,51.512088,"On or near St Swithin'S Lane","E01032739","City of London 001F","Other theft","Investigation complete; no suspect identified",NA
"175","ea3c1409494a77c1f600e23d3424c0b3bbb6001402c1b5fcfa50f0fc0a37b6da","2016-01","City of London Police","City of London Police",-0.082965,51.516351,"On or near Wormwood Street","E01032739","City of London 001F","Other theft","Investigation complete; no suspect identified",NA
"176","a02ff77ac6eaa655d4c673d9ea81ea74410e826b82a24b1987e87ace07534971","2016-01","City of London Police","City of London Police",-0.096075,51.514766,"On or near Foster Lane","E01032739","City of London 001F","Other theft","Investigation complete; no suspect identified",NA
"177","df9c8987f06cbdaf176339718832f2074c051b685d0a97cfb0064cbe5b5e9654","2016-01","City of London Police","City of London Police",-0.097645,51.515142,"On or near St Martin'S Le Grand","E01032739","City of London 001F","Other theft","Investigation complete; no suspect identified",NA
"178","7d005d1e456356d0e4161cb96eb324ca73db63f2af8ac28dd7848f4919d08cf2","2016-01","City of London Police","City of London Police",-0.082913,51.513463,"On or near Leadenhall Street","E01032739","City of London 001F","Other theft","Investigation complete; no suspect identified",NA
"179","663e3d327fa7f1aaae20eab20447007657b21f1f10bae34502d87baf739a3432","2016-01","City of London Police","City of London Police",-0.087118,51.513199,"On or near Nightclub","E01032739","City of London 001F","Other theft","Investigation complete; no suspect identified",NA
"180","5b2806d855dc0ed72a6775458e943ce26401ceec80405819d367f2fdf744bbe0","2016-01","City of London Police","City of London Police",-0.082965,51.516351,"On or near Wormwood Street","E01032739","City of London 001F","Other theft","Investigation complete; no suspect identified",NA
"181","6d9c186ded5183fa4405607d4a6b517319df318878990164fc6eec68427271bd","2016-01","City of London Police","City of London Police",-0.101073,51.513453,"On or near Creed Lane","E01032739","City of London 001F","Other theft","Investigation complete; no suspect identified",NA
"182","0cea1f7ce1a5f008e845e202fe8a5abf27a8120e5162ded7bc1ccc66a51c9304","2016-01","City of London Police","City of London Police",-0.084618,51.512682,"On or near Gracechurch Street","E01032739","City of London 001F","Other theft","Investigation complete; no suspect identified",NA
"183","7ad34ef536b9c96e9dd47f0f1525d8b264abedff7a2d772eb5e1c6e99afe508a","2016-01","City of London Police","City of London Police",-0.101575,51.513857,"On or near Ludgate Hill","E01032739","City of London 001F","Other theft","Investigation complete; no suspect identified",NA
"184","0301ef5cc58722b578a663ee6f79899e0e809e573d5dd249731584838ee68450","2016-01","City of London Police","City of London Police",-0.079283,51.511021,"On or near Seething Lane","E01032739","City of London 001F","Other theft","Investigation complete; no suspect identified",NA
"185","b3583c75604537a8833b213c99ad0a043f63c7728c54badb6545b5c6df37ef85","2016-01","City of London Police","City of London Police",-0.084566,51.51769,"On or near Blomfield Street","E01032739","City of London 001F","Other theft","Investigation complete; no suspect identified",NA
"186","a81a5abf051d1b8ff0da88989979f18e690676a94ef45106036d68fc060a5720","2016-01","City of London Police","City of London Police",-0.100179,51.514158,"On or near Shopping Area","E01032739","City of London 001F","Other theft","Status update unavailable",NA
"187","7bae968f98c676238da25b11ce4f3aaeb8d8dcf2f8578e9b1c4377923281c52c","2016-01","City of London Police","City of London Police",-0.08776,51.517149,"On or near London Wall","E01032739","City of London 001F","Other theft","Court result unavailable",NA
"188","90130d06ae6216fd32421f4c4905aba8cf7829580dee0fc99a21372068b674f9","2016-01","City of London Police","City of London Police",-0.087666,51.511122,"On or near Cannon Street","E01032739","City of London 001F","Other theft","Status update unavailable",NA
"189","04cd29f27c809b97f79d1677d852a070eac5ee83350b37d6742038b815bc52ff","2016-01","City of London Police","City of London Police",-0.087666,51.511122,"On or near Cannon Street","E01032739","City of London 001F","Other theft","Unable to prosecute suspect",NA
"190","8247024159bda33ff3cd9a1243a8ba3af0f34bd7668df43feae09daec77f0099","2016-01","City of London Police","City of London Police",-0.085173,51.51868,"On or near Finsbury Avenue","E01032739","City of London 001F","Other theft","Investigation complete; no suspect identified",NA
"191","4cbbceca816d5962044f11664ab7fc5c7be69082f2c76355161ffa880940e41d","2016-01","City of London Police","City of London Police",-0.087118,51.513199,"On or near Nightclub","E01032739","City of London 001F","Other theft","Investigation complete; no suspect identified",NA
"192","decbb0df7083132c8a8912b8f4d162605ad2762932a56bfdd3d517ae9b73a9bd","2016-01","City of London Police","City of London Police",-0.092719,51.512652,"On or near Queen Victoria Street","E01032739","City of London 001F","Other theft","Investigation complete; no suspect identified",NA
"193","5cc3693a7d50db2c21e7bed0c229c59e1d1b250dd476241292bd97af72867500","2016-01","City of London Police","City of London Police",-0.079786,51.517576,"On or near Police Station","E01032739","City of London 001F","Other theft","Investigation complete; no suspect identified",NA
"194","90c5db43d9248d573bb5ab09979e55fd60270cf928bf84e93e2354a7e8bdc807","2016-01","City of London Police","City of London Police",-0.09472,51.51442,"On or near Wood Street","E01032739","City of London 001F","Other theft","Investigation complete; no suspect identified",NA
"195","cc30dcdb20446b232a85e080642e0df858b6163713af5e3686429a5437c29272","2016-01","City of London Police","City of London Police",-0.079786,51.517576,"On or near Police Station","E01032739","City of London 001F","Other theft","Investigation complete; no suspect identified",NA
"196","4aec23b48e513272758b32d355ed15df02f66546be889b312b3c2ec8df3f96dc","2016-01","City of London Police","City of London Police",-0.092296,51.511386,"On or near College Hill","E01032739","City of London 001F","Other theft","Investigation complete; no suspect identified",NA
"197","c394046519807f9cceeaf747a9795bd5c19a8b35bccacc9f0c2ed63444b51ee6","2016-01","City of London Police","City of London Police",-0.101055,51.513552,"On or near Creed Lane","E01032739","City of London 001F","Other theft","Investigation complete; no suspect identified",NA
"198","d9f96e74bc377e5d1a26ab6bb945e841676ad7ce1554e78ac48cc7c524ea1076","2016-01","City of London Police","City of London Police",-0.08158,51.52051,"On or near Pindar Street","E01032739","City of London 001F","Other theft","Investigation complete; no suspect identified",NA
"199","b01c1f8a806fb8ec79bc2382fd835e9d6428e950e4dd531489f2c632ed7fc8cf","2016-01","City of London Police","City of London Police",-0.101055,51.513552,"On or near Creed Lane","E01032739","City of London 001F","Other theft","Investigation complete; no suspect identified",NA
"200","9364b63cb01291731ca9601810b7783865ec22f117bda5a57637e26d53bf339f","2016-01","City of London Police","City of London Police",-0.088393,51.511332,"On or near Abchurch Lane","E01032739","City of London 001F","Other theft","Status update unavailable",NA
"201","00db746f1696d027f6b4d7b064ce479c99a37e638e4944744701ca3fade0e414","2016-01","City of London Police","City of London Police",-0.101073,51.513453,"On or near Creed Lane","E01032739","City of London 001F","Other theft","Investigation complete; no suspect identified",NA
"202","db371f579c6f0d5fddeafd7b57506abc4ad2d471f0f0a372ba347287f9994ade","2016-01","City of London Police","City of London Police",-0.097645,51.515142,"On or near St Martin'S Le Grand","E01032739","City of London 001F","Possession of weapons","Offender given a caution",NA
"203","6b657ede92e6eb8a2f6f7f501d5fabaf058af0e4392d57b544ef7c23475caec3","2016-01","City of London Police","City of London Police",-0.092865,51.510182,"On or near Parking Area","E01032739","City of London 001F","Possession of weapons","Formal action is not in the public interest",NA
"204","dd95f1504ec9b02461f3b0c703484cb5ecc10e3433f5a6b54d66546e127720e4","2016-01","City of London Police","City of London Police",-0.078665,51.50995,"On or near Muscovy Street","E01032739","City of London 001F","Possession of weapons","Offender given a caution",NA
"205","92e557a04b2556cf97e6c0659c1f5f128722c15e4fc1e79e75ea7bbcb45f1138","2016-01","City of London Police","City of London Police",-0.080376,51.517244,"On or near Supermarket","E01032739","City of London 001F","Public order","Offender fined",NA
"206","92ab2ee03cdb19708fa62472cd067a82ee50970889342079620e4df0a59cfe5f","2016-01","City of London Police","City of London Police",-0.086051,51.513569,"On or near Finch Lane","E01032739","City of London 001F","Public order","Court case unable to proceed",NA
"207","c313f2bcff40bf4cfb6dc6a3f2e27f0f9cbb0ad98dbf312d4236f8ba4c27a59c","2016-01","City of London Police","City of London Police",-0.094628,51.514203,"On or near Cheapside","E01032739","City of London 001F","Public order","Unable to prosecute suspect",NA
"208","b4e2939dcfc9dae907418b8bc2e9b8560d118e946bc241f95ad677dad300d537","2016-01","City of London Police","City of London Police",-0.096363,51.513377,"On or near New Change","E01032739","City of London 001F","Public order","Investigation complete; no suspect identified",NA
"209","81aa552f8a1007d1340b8ae9f787b479dbf238c657478eb9853cee89c24a8d7c","2016-01","City of London Police","City of London Police",-0.093791,51.509414,"On or near Southwark Bridge Road","E01032739","City of London 001F","Public order","Unable to prosecute suspect",NA
"210","ca0242e6bfe7f4c27e0199f97c8f900cd8989bc1f64b65a605a1d751bced0420","2016-01","City of London Police","City of London Police",-0.079786,51.517576,"On or near Police Station","E01032739","City of London 001F","Public order","Defendant found not guilty",NA
"211","41214f453cb1d1a8a78de5ddda6d7e9a4f97e14ca9c3c33a1904f6abfb8f5819","2016-01","City of London Police","City of London Police",-0.079786,51.517576,"On or near Police Station","E01032739","City of London 001F","Public order","Local resolution",NA
"212","9144c213afe6216998656d3b7b8f17ac3345ee114960d42b4eef910dfed6792f","2016-01","City of London Police","City of London Police",-0.084723,51.514986,"On or near Conference/Exhibition Centre","E01032739","City of London 001F","Public order","Investigation complete; no suspect identified",NA
"213","481f13f88ef4f82a86639d48b98be11f41b31024d730a9f8b7113b6c919a2556","2016-01","City of London Police","City of London Police",-0.094758,51.512829,"On or near Nightclub","E01032739","City of London 001F","Public order","Investigation complete; no suspect identified",NA
"214","2dfd46241eb6354db3219518cf28d681c8c848ec26a06b70ff5e4b00e3ef0ea5","2016-01","City of London Police","City of London Police",-0.081091,51.516014,"On or near Camomile Street","E01032739","City of London 001F","Public order","Unable to prosecute suspect",NA
"215","b26d33d5c3de59e4b34325cd522e0786a72597310b1b6874fab7018325bf0ec4","2016-01","City of London Police","City of London Police",-0.100179,51.514158,"On or near Shopping Area","E01032739","City of London 001F","Public order","Court result unavailable",NA
"216","fefbfab60af92443b206c1e73eb2e8c60c1a0f0c84244056c2c8a6532a1a6ea2","2016-01","City of London Police","City of London Police",-0.101073,51.513453,"On or near Creed Lane","E01032739","City of London 001F","Public order","Investigation complete; no suspect identified",NA
"217","9f4a7e2c56642f397d8e54bae226336149b53f0e43c1f3d32405afe25a165e8d","2016-01","City of London Police","City of London Police",-0.082965,51.516351,"On or near Wormwood Street","E01032739","City of London 001F","Robbery","Investigation complete; no suspect identified",NA
"218","6f3da322d66ca7751d098c9cc6d039adc7ede64d09a540fba63ea4a1e3493193","2016-01","City of London Police","City of London Police",-0.096363,51.513377,"On or near New Change","E01032739","City of London 001F","Shoplifting","Investigation complete; no suspect identified",NA
"219","d044001ae10fb102f71c493a77bc2844e676f3eb0188e13bde0f81df21efa204","2016-01","City of London Police","City of London Police",-0.083086,51.511407,"On or near Rood Lane","E01032739","City of London 001F","Shoplifting","Offender given a caution",NA
"220","7ab492159f8ec31ba82fa8e49090f498d7f46ffd447bbccf6dfd5a0eb5a2b10e","2016-01","City of London Police","City of London Police",-0.080728,51.511611,"On or near Supermarket","E01032739","City of London 001F","Shoplifting","Investigation complete; no suspect identified",NA
"221","74a4da973d51716a18bccac934ff971da8f820fd42b36c93e67edb30407a96bc","2016-01","City of London Police","City of London Police",-0.079786,51.517576,"On or near Police Station","E01032739","City of London 001F","Shoplifting","Local resolution",NA
"222","3bba2e6c6cb729054a2e3b5f325a7eb8f0de2e8382dd5c32b003bd5f676fd6ff","2016-01","City of London Police","City of London Police",-0.086624,51.511923,"On or near Clement'S Lane","E01032739","City of London 001F","Shoplifting","Offender fined",NA
"223","1e40afe07f1a54b50973364ada507ba0fc64767e83175bacc92d9d3ec23636d4","2016-01","City of London Police","City of London Police",-0.083086,51.511407,"On or near Rood Lane","E01032739","City of London 001F","Shoplifting","Investigation complete; no suspect identified",NA
"224","d1c04f324eda2b1097c60b13644bb7a6e2650c4e02a3784f8fc105e683f4ed04","2016-01","City of London Police","City of London Police",-0.093257,51.51392,"On or near Bow Lane","E01032739","City of London 001F","Shoplifting","Unable to prosecute suspect",NA
"225","3ef90808383c0ec12730716d672b8f421625abf60f69ed2fa76fde3d61c3b4cb","2016-01","City of London Police","City of London Police",-0.086624,51.511923,"On or near Clement'S Lane","E01032739","City of London 001F","Shoplifting","Investigation complete; no suspect identified",NA
"226","61815519e24bc43fb3063e774699ad834534e1f29c33d20812c7946291be4be4","2016-01","City of London Police","City of London Police",-0.077694,51.513171,"On or near Aldgate","E01032739","City of London 001F","Shoplifting","Status update unavailable",NA
"227","d8e44dd1159c98a053911314d17b768d436cc1809284f7d77ef957a076503c47","2016-01","City of London Police","City of London Police",-0.086393,51.510894,"On or near Eastcheap","E01032739","City of London 001F","Shoplifting","Status update unavailable",NA
"228","ee842298bbb02f62bd8cb05e8ac2674261a7092814fb8b55013ef28643ae1ee6","2016-01","City of London Police","City of London Police",-0.083086,51.511407,"On or near Rood Lane","E01032739","City of London 001F","Shoplifting","Offender given a caution",NA
"229","a9824af2d7f5f3d2060d4065296927d0a7e0641db86a41f31e8399a68a6e307d","2016-01","City of London Police","City of London Police",-0.082748,51.512597,"On or near Leadenhall Place","E01032739","City of London 001F","Shoplifting","Investigation complete; no suspect identified",NA
"230","a8d766c7c9282da4568c0269925769e59e5f11b6ff2efc7a99489ddf28433b97","2016-01","City of London Police","City of London Police",-0.08531,51.518511,"On or near Eldon Street","E01032739","City of London 001F","Shoplifting","Investigation complete; no suspect identified",NA
"231","a872b2c0744e9faeb6c2024db0e82911647f6524a8aa7145df27946721fd01c9","2016-01","City of London Police","City of London Police",-0.083086,51.511407,"On or near Rood Lane","E01032739","City of London 001F","Shoplifting","Awaiting court outcome",NA
"232","1a1f9eaf00ce6939a12c797ee0d1aa087b67f7d29b9b40822ba6da8d07f45565","2016-01","City of London Police","City of London Police",-0.093465,51.514463,"On or near Russia Row","E01032739","City of London 001F","Shoplifting","Court result unavailable",NA
"233","c5604477730ac17fbfeadb6b12bcaad4dba64c818fce2f75737c1226cbb7af40","2016-01","City of London Police","City of London Police",-0.083086,51.511407,"On or near Rood Lane","E01032739","City of London 001F","Shoplifting","Awaiting court outcome",NA
"234","647e80b06606b3f658f8117fdff4926f9a9f9a0419218fee912c13dc2c9ea3c4","2016-01","City of London Police","City of London Police",-0.09172,51.513454,"On or near Supermarket","E01032739","City of London 001F","Shoplifting","Status update unavailable",NA
"235","50a40294567b8fb09af4123962b7e2b8ea5bcd62a3564440e98c8bc645a50490","2016-01","City of London Police","City of London Police",-0.09172,51.513454,"On or near Supermarket","E01032739","City of London 001F","Shoplifting","Status update unavailable",NA
"236","73728aef4631c85f9914243f9bec161ef456dc39cdf5b9ae20af9140446c7e85","2016-01","City of London Police","City of London Police",-0.086393,51.510894,"On or near Eastcheap","E01032739","City of London 001F","Shoplifting","Offender given a caution",NA
"237","1755207cf6e11742b9f58408a48f4c91eca5eab1befca1bae790329063410907","2016-01","City of London Police","City of London Police",-0.086624,51.511923,"On or near Clement'S Lane","E01032739","City of London 001F","Shoplifting","Status update unavailable",NA
"238","90bb356740cfe224cb703d0e3c65ca05c7b0fe2d86d09d6eddbdb660b974a030","2016-01","City of London Police","City of London Police",-0.096561,51.514513,"On or near Cheapside","E01032739","City of London 001F","Shoplifting","Offender fined",NA
"239","ddb84bfbb6a8e4f5db02d8e1d67c41fe87f301bc695abc29feec62a55c3223d5","2016-01","City of London Police","City of London Police",-0.080782,51.514804,"On or near St Mary Axe","E01032739","City of London 001F","Shoplifting","Investigation complete; no suspect identified",NA
"240","87ba01c6e7085b5ceb20807aa22126c2646e6c54c742f0db84eea88e668065f1","2016-01","City of London Police","City of London Police",-0.096363,51.513377,"On or near New Change","E01032739","City of London 001F","Shoplifting","Investigation complete; no suspect identified",NA
"241","bdb5b3b9a3ce4a1955a536b99df42d3b2273a663be68c4fae37b647674c1c99f","2016-01","City of London Police","City of London Police",-0.096075,51.514766,"On or near Foster Lane","E01032739","City of London 001F","Shoplifting","Unable to prosecute suspect",NA
"242","e6bb3780173bc1fce2f103e0c0326df4e067d0ebf42c1f18376b9c21bc0f020e","2016-01","City of London Police","City of London Police",-0.096363,51.513377,"On or near New Change","E01032739","City of London 001F","Shoplifting","Investigation complete; no suspect identified",NA
"243","6de5c939e32821315153b1161b5d1171372a085c39c8c8f074a91bfd3d5f9c3e","2016-01","City of London Police","City of London Police",-0.083296,51.517058,"On or near Old Broad Street","E01032739","City of London 001F","Shoplifting","Investigation complete; no suspect identified",NA
"244","aa7e611c704ff3dcb7270f9434ad5321ca3d108a3af503d3dd45747d53e7bdab","2016-01","City of London Police","City of London Police",-0.096363,51.513377,"On or near New Change","E01032739","City of London 001F","Shoplifting","Investigation complete; no suspect identified",NA
"245","f56c29d7e5b9d2fa539acde6550eb87f4b272e1ec286c0f05deb8011a48d8fab","2016-01","City of London Police","City of London Police",-0.096363,51.513377,"On or near New Change","E01032739","City of London 001F","Shoplifting","Investigation complete; no suspect identified",NA
"246","1743bf64b608403a8d0634f6d972a00b02a8f16a1ec64fe90aa77077ff8e5993","2016-01","City of London Police","City of London Police",-0.096363,51.513377,"On or near New Change","E01032739","City of London 001F","Shoplifting","Unable to prosecute suspect",NA
"247","4a0624a7ea18f86f64b1d75d58062445c88d4439e9e4a0439341e3558b59ed59","2016-01","City of London Police","City of London Police",-0.096363,51.513377,"On or near New Change","E01032739","City of London 001F","Shoplifting","Local resolution",NA
"248","18851c3bc0d5437dba4d00e05e624c85bc307a690b98b9621859d0f68c51d3be","2016-01","City of London Police","City of London Police",-0.097645,51.515142,"On or near St Martin'S Le Grand","E01032739","City of London 001F","Shoplifting","Offender fined",NA
"249","4eeb5702564f481f770d0e58d2c2df64d0858694b99f70ab5491610bbf564b55","2016-01","City of London Police","City of London Police",-0.089698,51.511812,"On or near Oxford Court","E01032739","City of London 001F","Shoplifting","Status update unavailable",NA
"250","d2fdc10584e8d7a44d13dc03aebc24a40d50f8f311b8236aca29ba379c18b9d1","2016-01","City of London Police","City of London Police",-0.096363,51.513377,"On or near New Change","E01032739","City of London 001F","Shoplifting","Status update unavailable",NA
"251","fda796fc7a41dac338b0f54a25f05ac3ebb7265313ddcb2dfea6cff47b654bc9","2016-01","City of London Police","City of London Police",-0.086393,51.510894,"On or near Eastcheap","E01032739","City of London 001F","Shoplifting","Offender given penalty notice",NA
"252","8d6e91e1d03698837dbd75066e675144c451f9afb9aa7230bec3cce51f2b8b10","2016-01","City of London Police","City of London Police",-0.083086,51.511407,"On or near Rood Lane","E01032739","City of London 001F","Shoplifting","Awaiting court outcome",NA
"253","16cbc29b4a1645e48fcc3221001396c29d30de9de8309998de95a2a90af1f180","2016-01","City of London Police","City of London Police",-0.08531,51.518511,"On or near Eldon Street","E01032739","City of London 001F","Shoplifting","Investigation complete; no suspect identified",NA
"254","9d806c4569737b60ba7dbc4ce7a854ed861df4c4e3c78b58a79bd7928ac2dc99","2016-01","City of London Police","City of London Police",-0.093465,51.514463,"On or near Russia Row","E01032739","City of London 001F","Shoplifting","Court result unavailable",NA
"255","32fe356588c345786160e235cadf7fbafb6736a213685f2bd3b5c800a98f8b20","2016-01","City of London Police","City of London Police",-0.085669,51.5151,"On or near Austin Friars","E01032739","City of London 001F","Shoplifting","Investigation complete; no suspect identified",NA
"256","325bead3b39e9b0b06b7e0f8781d0b5be808b146d7ce92897c22cf9ae750c382","2016-01","City of London Police","City of London Police",-0.087118,51.513199,"On or near Nightclub","E01032739","City of London 001F","Shoplifting","Investigation complete; no suspect identified",NA
"257","6cbf9b347381f519a865df64fd2fd076a5942d8d3932eedd5e42a04888209cf7","2016-01","City of London Police","City of London Police",-0.086624,51.511923,"On or near Clement'S Lane","E01032739","City of London 001F","Shoplifting","Investigation complete; no suspect identified",NA
"258","8135377d0a75596167a23ad47f0ed9ccd12738740951c222e4dab2535a6689c7","2016-01","City of London Police","City of London Police",-0.086624,51.511923,"On or near Clement'S Lane","E01032739","City of London 001F","Shoplifting","Court result unavailable",NA
"259","726d6ee379c37e4d1ceb39c0360fa71832522bd9a047958a755d0ef12ef9b42e","2016-01","City of London Police","City of London Police",-0.086393,51.510894,"On or near Eastcheap","E01032739","City of London 001F","Shoplifting","Investigation complete; no suspect identified",NA
"260","7c666d4ada54914666ed5c8873a20c79fbb22f62caa07f3acc2ac4305449322b","2016-01","City of London Police","City of London Police",-0.097645,51.515142,"On or near St Martin'S Le Grand","E01032739","City of London 001F","Shoplifting","Offender given suspended prison sentence",NA
"261","f73d1f925af4579c9964b15ddc5082dc2c70f34c801112f12369a483ca12c15c","2016-01","City of London Police","City of London Police",-0.086624,51.511923,"On or near Clement'S Lane","E01032739","City of London 001F","Shoplifting","Offender given penalty notice",NA
"262","3d41f389fab0fdea0bb4985ea84727886ad806e692657833ab7bf7acd3632774","2016-01","City of London Police","City of London Police",-0.080244,51.511828,"On or near Mark Lane","E01032739","City of London 001F","Shoplifting","Court result unavailable",NA
"263","e3b253790037a06704b75abc2dfa1462a8f9216220d43e31c2247f842cf92a10","2016-01","City of London Police","City of London Police",-0.087118,51.513199,"On or near Nightclub","E01032739","City of London 001F","Shoplifting","Investigation complete; no suspect identified",NA
"264","209440d2289792dcbc2d2598dda1df33f5b2cae41b69b6df00f3a5f1b6fa9b02","2016-01","City of London Police","City of London Police",-0.09472,51.51442,"On or near Wood Street","E01032739","City of London 001F","Shoplifting","Court result unavailable",NA
"265","b4dec6510acecb5768d2735351e4a9f299f3cb62c72a9ddf80ce0036136ea2cb","2016-01","City of London Police","City of London Police",-0.084566,51.51769,"On or near Blomfield Street","E01032739","City of London 001F","Shoplifting","Offender given conditional discharge",NA
"266","b0f0956237c4d5f77353f30ce6a2f21ff6f90d77b45a5a0b512be5d35d21e891","2016-01","City of London Police","City of London Police",-0.097645,51.515142,"On or near St Martin'S Le Grand","E01032739","City of London 001F","Shoplifting","Investigation complete; no suspect identified",NA
"267","b2e372f7a0f123422ccee5fbc03bf665f9750b505aac8dc7268c64db0bf143e9","2016-01","City of London Police","City of London Police",-0.080318,51.520678,"On or near Primrose Street","E01032739","City of London 001F","Theft from the person","Investigation complete; no suspect identified",NA
"268","8aa0cc4986567060d73fadf016626a41d811913fef679e5670f170da1734317c","2016-01","City of London Police","City of London Police",-0.080665,51.509344,"On or near Pedestrian Subway","E01032739","City of London 001F","Theft from the person","Investigation complete; no suspect identified",NA
"269","004214896649e55ca0fa984639fb31aca9e52174d82a194d7cdecda9d7f8a146","2016-01","City of London Police","City of London Police",-0.083086,51.511407,"On or near Rood Lane","E01032739","City of London 001F","Theft from the person","Investigation complete; no suspect identified",NA
"270","07de4ee728e093861dbee9a9b99c56c5119869c6b5af91d6ecc13466a7d856cd","2016-01","City of London Police","City of London Police",-0.080318,51.520678,"On or near Primrose Street","E01032739","City of London 001F","Theft from the person","Investigation complete; no suspect identified",NA
"271","d95e82d5dd11d5ecaf54efa5ae60ea1d53e8795190bd2df992e2df9bd830a13d","2016-01","City of London Police","City of London Police",-0.083755,51.514358,"On or near Threadneedle Street","E01032739","City of London 001F","Theft from the person","Investigation complete; no suspect identified",NA
"272","2a9fdfe7d3717090fd2d3adfc1712350961f7b5a073d7c89899183fe18178990","2016-01","City of London Police","City of London Police",-0.104494,51.509848,"On or near A201","E01032739","City of London 001F","Theft from the person","Investigation complete; no suspect identified",NA
"273","df6f98defa53b438fd07576b3c39b00167286ffd7fd938a0612a6ac1bed962b2","2016-01","City of London Police","City of London Police",-0.079786,51.517576,"On or near Police Station","E01032739","City of London 001F","Theft from the person","Investigation complete; no suspect identified",NA
"274","c3f85a93a53490e3f62597af937b69c25638d9812891f74d25c755c58d100f0e","2016-01","City of London Police","City of London Police",-0.101452,51.51265,"On or near St Andrew'S Hill","E01032739","City of London 001F","Theft from the person","Investigation complete; no suspect identified",NA
"275","cea8722aba7372c33866f5fc566adc93c7cbc0527afebddeee6d832646a59169","2016-01","City of London Police","City of London Police",-0.080665,51.509344,"On or near Pedestrian Subway","E01032739","City of London 001F","Theft from the person","Investigation complete; no suspect identified",NA
"276","8d7a40e3de757423284803137b4c306877cf03f975082e48f375bf201975db3a","2016-01","City of London Police","City of London Police",-0.092719,51.512652,"On or near Queen Victoria Street","E01032739","City of London 001F","Theft from the person","Investigation complete; no suspect identified",NA
"277","1a143b77442d17175741023fab4070fdb8ef1e9c2f7fbe77499f5a974049caa3","2016-01","City of London Police","City of London Police",-0.078308,51.518091,"On or near Widegate Street","E01032739","City of London 001F","Theft from the person","Investigation complete; no suspect identified",NA
"278","7bbc0d587f6b88aa2fdeb9f47c0ff6855b86ee0ec42b7938fe3283ce5e102cf6","2016-01","City of London Police","City of London Police",-0.083755,51.514358,"On or near Threadneedle Street","E01032739","City of London 001F","Theft from the person","Investigation complete; no suspect identified",NA
"279","6a88c9c51205362d009fca14da531ae74f6d102f91d84a15f624c8bb39e87e7a","2016-01","City of London Police","City of London Police",-0.080234,51.516855,"On or near Devonshire Row","E01032739","City of London 001F","Theft from the person","Investigation complete; no suspect identified",NA
"280","aacb127299791c8c4f197656c950be754e1aeafbfa6aaeb5ae7d8170844650bd","2016-01","City of London Police","City of London Police",-0.082571,51.514753,"On or near Great St Helen'S","E01032739","City of London 001F","Theft from the person","Investigation complete; no suspect identified",NA
"281","7f74a01f3acf0a504eca6aded526ca287a30e36871793b1d49276c037f1e79cb","2016-01","City of London Police","City of London Police",-0.079786,51.517576,"On or near Police Station","E01032739","City of London 001F","Theft from the person","Investigation complete; no suspect identified",NA
"282","dac38cba9f82f60e87132348a5d5ba4e8404dbcbcb14a4c5169b7ab967024ac7","2016-01","City of London Police","City of London Police",-0.084566,51.51769,"On or near Blomfield Street","E01032739","City of London 001F","Theft from the person","Investigation complete; no suspect identified",NA
"283","fa13eb55a55dbe71e65bb101deeeffb9c148caf2c0ae69f0515917c98458c033","2016-01","City of London Police","City of London Police",-0.101959,51.513297,"On or near Carter Lane","E01032739","City of London 001F","Theft from the person","Investigation complete; no suspect identified",NA
"284","de12b438917b02032834b5d2f4120839d07f7a211de10791db8c301c82abf807","2016-01","City of London Police","City of London Police",-0.086272,51.513114,"On or near Birchin Lane","E01032739","City of London 001F","Theft from the person","Investigation complete; no suspect identified",NA
"285","1d6731c801f33721198cba51e37abdefd879aaa21f8dc75f75084656cd0fc39e","2016-01","City of London Police","City of London Police",-0.08154,51.510806,"On or near Mincing Lane","E01032739","City of London 001F","Theft from the person","Investigation complete; no suspect identified",NA
"286","a90b2d162bbf620c6650650e1ae54f019a8008819b22eeeb1c9fae4319f2ea75","2016-01","City of London Police","City of London Police",-0.087118,51.513199,"On or near Nightclub","E01032739","City of London 001F","Theft from the person","Investigation complete; no suspect identified",NA
"287","c4be062951866af4bb347454af63e862d35a877d679138a6b768fe275a1b9e37","2016-01","City of London Police","City of London Police",-0.096363,51.513377,"On or near New Change","E01032739","City of London 001F","Theft from the person","Investigation complete; no suspect identified",NA
"288","83a20851c9195b72da4e521ae36af1b9056e593aa65051757fc359c7566c042e","2016-01","City of London Police","City of London Police",-0.093398,51.512951,"On or near Watling Street","E01032739","City of London 001F","Theft from the person","Investigation complete; no suspect identified",NA
"289","0aa98879dcac21c0ff99cb77a48713b21a161d376c8ce7e768b652dfdd717fdc","2016-01","City of London Police","City of London Police",-0.079283,51.511021,"On or near Seething Lane","E01032739","City of London 001F","Vehicle crime","Investigation complete; no suspect identified",NA
"290","2ac791d5425ef3a8e9fb3a7a65bce40d1186268c7f9a01f6f550e3dfa1ce24ce","2016-01","City of London Police","City of London Police",-0.100202,51.513268,"On or near Dean'S Court","E01032739","City of London 001F","Vehicle crime","Investigation complete; no suspect identified",NA
"291","e8d99238a2dc23de6eb76e3d6e654564eafdc8f1a7d741660e5a5d28c215f734","2016-01","City of London Police","City of London Police",-0.089451,51.517032,"On or near Bus/Coach Station","E01032739","City of London 001F","Vehicle crime","Investigation complete; no suspect identified",NA
"292","130869831538008ff9f6cbb079a1bf15d40e4c4d71a1729c5e54e73551e45ea8","2016-01","City of London Police","City of London Police",-0.080322,51.510651,"On or near Mark Lane","E01032739","City of London 001F","Vehicle crime","Investigation complete; no suspect identified",NA
"293","83ab3b3e26155911615aa707ab5ef6061d71ca9f18117a685c16bba8c540d608","2016-01","City of London Police","City of London Police",-0.079283,51.511021,"On or near Seething Lane","E01032739","City of London 001F","Vehicle crime","Investigation complete; no suspect identified",NA
"294","41bdb3360d836cdb104b7d62f22cdfece0fa591748ba65981b50ec0ea7cfad29","2016-01","City of London Police","City of London Police",-0.099907,51.512031,"On or near Queen Victoria Street","E01032739","City of London 001F","Vehicle crime","Investigation complete; no suspect identified",NA
"295","4b6dd78fbea7d3c163b535782643c5da33ee47b0e34a0c36eda29dfd4d685756","2016-01","City of London Police","City of London Police",-0.094758,51.512829,"On or near Nightclub","E01032739","City of London 001F","Violence and sexual offences","Investigation complete; no suspect identified",NA
"296","cb787a9a367cabdf3f0bb7dacd2ca695e2716ac4b21316b5449600897ecbf7bc","2016-01","City of London Police","City of London Police",-0.08162,51.516814,"On or near Alderman'S Walk","E01032739","City of London 001F","Violence and sexual offences","Offender given a caution",NA
"297","4af6d618afa743a37fefd907066a67b513542160d7157b75dbe3c25f722fff26","2016-01","City of London Police","City of London Police",-0.084967,51.512598,"On or near Bell Inn Yard","E01032739","City of London 001F","Violence and sexual offences","Unable to prosecute suspect",NA
"298","c7ce976ad69ba1d425d59c46448b6c63d3cfe1a4cc2864fd8e153c803bd41869","2016-01","City of London Police","City of London Police",-0.079786,51.517576,"On or near Police Station","E01032739","City of London 001F","Violence and sexual offences","Investigation complete; no suspect identified",NA
"299","fb1df276ae69686279ddb30e5c546aba5db788f16a8ba3b9e47d43e3c7e53d58","2016-01","City of London Police","City of London Police",-0.082571,51.514753,"On or near Great St Helen'S","E01032739","City of London 001F","Violence and sexual offences","Defendant found not guilty",NA
"300","cc0855928c39dd4eaaaebb007dd002f8c5c80077e8941a1c4c5ebb578fa37391","2016-01","City of London Police","City of London Police",-0.100179,51.514158,"On or near Shopping Area","E01032739","City of London 001F","Violence and sexual offences","Offender given a caution",NA
"301","169e5e7f9eefdc1c3ef54173dd514ce34f395787203f1cdc1f92c17c6ae53f4d","2016-01","City of London Police","City of London Police",-0.088233,51.515484,"On or near Tokenhouse Yard","E01032739","City of London 001F","Violence and sexual offences","Investigation complete; no suspect identified",NA
"302","8e3ed90659eb50974fbccf517fa67c3b4cdada3cfd5718ca6c7c51cab82aa514","2016-01","City of London Police","City of London Police",-0.088203,51.518262,"On or near Moorgate","E01032739","City of London 001F","Violence and sexual offences","Investigation complete; no suspect identified",NA
"303","8f3f95cdf9a44d5c70d65c6beb1261864882ad73a53069a65efac3e0c64ba4f5","2016-01","City of London Police","City of London Police",-0.087118,51.513199,"On or near Nightclub","E01032739","City of London 001F","Violence and sexual offences","Offender sent to prison",NA
"304","0ff3642ea925fb3f92d16d0d148124db3d69732b5ce3ef4969bf9436bbfeedbd","2016-01","City of London Police","City of London Police",-0.080728,51.511611,"On or near Supermarket","E01032739","City of London 001F","Violence and sexual offences","Offender given a caution",NA
"305","7612384ba060bcee731f22f70556f9d1a29a14b2586af8d7b9e5644dc23ee39e","2016-01","City of London Police","City of London Police",-0.076853,51.511916,"On or near Nightclub","E01032739","City of London 001F","Violence and sexual offences","Unable to prosecute suspect",NA
"306","71a59e91319ab89041b9527d7d57fb00fbe5ec75800ed6d455b128b8312f1ac4","2016-01","City of London Police","City of London Police",-0.082913,51.513463,"On or near Leadenhall Street","E01032739","City of London 001F","Violence and sexual offences","Status update unavailable",NA
"307","83ac75beaa2c168ee2e28c6e31239b6d14a3a09e14cdf9b534ba17533a443c83","2016-01","City of London Police","City of London Police",-0.079398,51.516508,"On or near Devonshire Square","E01032739","City of London 001F","Violence and sexual offences","Offender given a caution",NA
"308","fcac53fd84c3cc9a51d87835b61ae72bafeb54ce1c48bfa871ff93e307e3eff4","2016-01","City of London Police","City of London Police",-0.087118,51.513199,"On or near Nightclub","E01032739","City of London 001F","Violence and sexual offences","Offender sent to prison",NA
"309","83b493fd30ea12fc9483d570bdc0eaa57a99fd2096a723c61070d08a3bb1265a","2016-01","City of London Police","City of London Police",-0.079786,51.517576,"On or near Police Station","E01032739","City of London 001F","Violence and sexual offences","Offender given a caution",NA
"310","3c534d80deafe50988c56eedfd76322b4cf4e2f5645ef81ad9fb411d913e3f02","2016-01","City of London Police","City of London Police",-0.082913,51.513463,"On or near Leadenhall Street","E01032739","City of London 001F","Violence and sexual offences","Investigation complete; no suspect identified",NA
"311","558c3d9dc15fc5fe4c7e6ee30e1c575d420606e0c4b73d90f6fec1beed092e51","2016-01","City of London Police","City of London Police",-0.079786,51.517576,"On or near Police Station","E01032739","City of London 001F","Violence and sexual offences","Offender given a caution",NA
"312","80687f03beabbe051a2487b0d39763124d23f2193a17160e36ba84c71ec0b536","2016-01","City of London Police","City of London Police",-0.077637,51.511453,"On or near Crutched Friars","E01032739","City of London 001F","Violence and sexual offences","Unable to prosecute suspect",NA
"313","13d740a9ff85b1ec9a3f77beae8c86569fb60c430f63cc29d4f044a41e1cd171","2016-01","City of London Police","City of London Police",-0.087549,51.514276,"On or near Bartholomew Lane","E01032739","City of London 001F","Violence and sexual offences","Unable to prosecute suspect",NA
"314","7b04d2c4801fea56a034297ce48f7eb11e6242280862da4b26ac07237bf439c6","2016-01","City of London Police","City of London Police",-0.090142,51.514292,"On or near Conference/Exhibition Centre","E01032739","City of London 001F","Violence and sexual offences","Investigation complete; no suspect identified",NA
"315","3547fd9f0ba34cafce2711774dd54fcd1bb5e0372595e337ac35c9eb5b6f4b49","2016-01","City of London Police","City of London Police",-0.093791,51.509414,"On or near Southwark Bridge Road","E01032739","City of London 001F","Violence and sexual offences","Court result unavailable",NA
"316","11333774eebb65b775c2448cf609b5808810ed3dab1e2684dbcbe9be8647fd3f","2016-01","City of London Police","City of London Police",-0.098777,51.512526,"On or near Knightrider Street","E01032739","City of London 001F","Violence and sexual offences","Investigation complete; no suspect identified",NA
"317","e33ecda9a9ea8b3e7e4dd1cda3df2af781441a4d87f7aec687be8e3a8312cfd0","2016-01","City of London Police","City of London Police",-0.086278,51.509876,"On or near Fish Street Hill","E01032739","City of London 001F","Violence and sexual offences","Investigation complete; no suspect identified",NA
"318","e0cb925c277d69cdce317c27dcf57e6493da0c646496b0ec4596657523c78d2b","2016-01","City of London Police","City of London Police",-0.080728,51.511611,"On or near Supermarket","E01032739","City of London 001F","Violence and sexual offences","Local resolution",NA
"319","e2315f2e92a806d7eca5bea7fa792719783f3cedf6f21a5611f54480899623c2","2016-01","City of London Police","City of London Police",-0.079786,51.517576,"On or near Police Station","E01032739","City of London 001F","Violence and sexual offences","Unable to prosecute suspect",NA
"320","81c5dd8dd161457232c76361ed980f2659e2c9528a3a6910799b1cad30cb7e7a","2016-01","City of London Police","City of London Police",-0.093791,51.509414,"On or near Southwark Bridge Road","E01032739","City of London 001F","Violence and sexual offences","Court result unavailable",NA
"321","337bd11f2984d0811dfcab12a2b222e1aab02f6d1b76202f181e4786655f2bd5","2016-01","City of London Police","City of London Police",-0.081091,51.516014,"On or near Camomile Street","E01032739","City of London 001F","Violence and sexual offences","Court case unable to proceed",NA
"322","a8138bb5d39d535311c827568bdd5ed36076beeff837eecb42d7573cf1067ee7","2016-01","City of London Police","City of London Police",-0.08162,51.516814,"On or near Alderman'S Walk","E01032739","City of London 001F","Violence and sexual offences","Offender given a caution",NA
"323","894f90e7b6f5fb0a7d0519aea5b32ea98b982c9edaafa226b99b49f673498a80","2016-01","City of London Police","City of London Police",-0.081091,51.516014,"On or near Camomile Street","E01032739","City of London 001F","Violence and sexual offences","Unable to prosecute suspect",NA
"324","2171d293f575f33dab91d4ae2ca033495db40cc863ccd50bbb51af8c780222a8","2016-01","City of London Police","City of London Police",-0.094758,51.512829,"On or near Nightclub","E01032739","City of London 001F","Violence and sexual offences","Investigation complete; no suspect identified",NA
"325","3a3241da3f027a2ed2fbfe1912f01596a786efc7f9cb28143e0560dd50cc09bd","2016-01","City of London Police","City of London Police",-0.082571,51.514753,"On or near Great St Helen'S","E01032739","City of London 001F","Violence and sexual offences","Offender given a caution",NA
"326","34daa16b36b4b95b18f2d97207a45ac3dea784350b0984bb7145e12601733620","2016-01","City of London Police","City of London Police",-0.083993,51.51144,"On or near Philpot Lane","E01032739","City of London 001F","Violence and sexual offences","Unable to prosecute suspect",NA
"327","5f382a76e9a0eddfae925282a385b3cbbcd3d790d6dce2ec3df0c912b1388ef5","2016-01","City of London Police","City of London Police",-0.099907,51.512031,"On or near Queen Victoria Street","E01032739","City of London 001F","Violence and sexual offences","Investigation complete; no suspect identified",NA
"328","37d129dcbffc39f2406456cd2db7d327368f43f29561554ee96f74d296e26b43","2016-01","City of London Police","City of London Police",-0.079786,51.517576,"On or near Police Station","E01032739","City of London 001F","Violence and sexual offences","Offender given a caution",NA
"329","dfe494f4a2143de49b8d4a244a870a4db2a2b259bc3708ee182ba9272897d251","2016-01","City of London Police","City of London Police",-0.077578,51.510795,"On or near Pepys Street","E01032739","City of London 001F","Violence and sexual offences","Status update unavailable",NA
"330","87cda6772689fac67463df5ed0d9c056fc6045e4781c572b0becb090a117fedc","2016-01","City of London Police","City of London Police",-0.082965,51.516351,"On or near Wormwood Street","E01032739","City of London 001F","Violence and sexual offences","Unable to prosecute suspect",NA
"331","7690008b230bcaf4a9e0c15678441af00a0f525fb51b0576c246a21ec09602fe","2016-01","City of London Police","City of London Police",-0.089218,51.516057,"On or near Moorgate","E01032739","City of London 001F","Violence and sexual offences","Court result unavailable",NA
"332","a3178b8f48fc51d7cb28eec15c3dab5e9b550f22d782ab4e899964ddda108981","2016-01","City of London Police","City of London Police",-0.09472,51.51442,"On or near Wood Street","E01032739","City of London 001F","Violence and sexual offences","Unable to prosecute suspect",NA
"333","d2189521c0dcecab05d8392608035663128dfa64a083a3544632b151b41d6e5d","2016-01","City of London Police","City of London Police",-0.090203,51.511118,"On or near Scott'S Yard","E01032739","City of London 001F","Violence and sexual offences","Investigation complete; no suspect identified",NA
"334","6365346e728e2082f04d588332acda4835c115801f8bc50c99a1b4ae9315c9b2","2016-01","City of London Police","City of London Police",-0.080322,51.510651,"On or near Mark Lane","E01032739","City of London 001F","Violence and sexual offences","Unable to prosecute suspect",NA
"335","a3df4b2de363aac8e2e25b112abb36c8d0646658ccdc52428ce7ded5a2b5dc78","2016-01","City of London Police","City of London Police",-0.094628,51.514203,"On or near Cheapside","E01032739","City of London 001F","Violence and sexual offences","Unable to prosecute suspect",NA
"336","522641602cfb8c4c1ec5cdc32d53c1af23155c574ec7ac5b969f6d2de83c1e5a","2016-01","City of London Police","City of London Police",-0.081091,51.516014,"On or near Camomile Street","E01032739","City of London 001F","Violence and sexual offences","Offender given a caution",NA
"337","6053c78b28a70af4dd169c27c03f39f4610210b102080481db82b6764793fe7f","2016-01","City of London Police","City of London Police",-0.084723,51.514986,"On or near Conference/Exhibition Centre","E01032739","City of London 001F","Other crime","Investigation complete; no suspect identified",NA
"338","f087601724aa8c46b94ff5011a31f8c3d9e28dc83f226165ef1c3214e11c6f3f","2016-01","City of London Police","City of London Police",-0.082811,51.510054,"On or near Idol Lane","E01032739","City of London 001F","Other crime","Defendant found not guilty",NA
"339","870622779f3d0b8a34c9384c1eb8cf823e06e1c0116d2e6ea08f0f5b770c30e9","2016-01","City of London Police","City of London Police",-0.079786,51.517576,"On or near Police Station","E01032739","City of London 001F","Other crime","Offender given a caution",NA
"340","995b6b632292507077519386cc72a47b4e22e0aab278e4552c9cae523e860774","2016-01","City of London Police","City of London Police",-0.100179,51.514158,"On or near Shopping Area","E01032739","City of London 001F","Other crime","Investigation complete; no suspect identified",NA
"341","1a13d24a6616504cdbd6cb4c79e948c7bbe7540290e203dc8d56af9eebb90d1d","2016-01","City of London Police","City of London Police",-0.085355,51.510563,"On or near Pudding Lane","E01032739","City of London 001F","Other crime","Court result unavailable",NA
"342","410a43fb12dbb735d0baef704e38d94af47210d08cafa0e0dab3b58d87a96372","2016-01","City of London Police","City of London Police",-0.089465,51.510855,"On or near Gophir Lane","E01032739","City of London 001F","Other crime","Unable to prosecute suspect",NA
"343","4f46a23373c33d7c926407c1b04548bf84dd5f9ea134efc5f2b46218f10bcf7f","2016-01","City of London Police","City of London Police",-0.086278,51.509876,"On or near Fish Street Hill","E01032739","City of London 001F","Other crime","Status update unavailable",NA
"344","","2016-01","City of London Police","City of London Police",-0.099818,51.519017,"On or near Cloth Fair","E01032740","City of London 001G","Anti-social behaviour","",NA
"345","","2016-01","City of London Police","City of London Police",-0.1059,51.516966,"On or near Plumtree Court","E01032740","City of London 001G","Anti-social behaviour","",NA
"346","","2016-01","City of London Police","City of London Police",-0.0985,51.519526,"On or near Middle Street","E01032740","City of London 001G","Anti-social behaviour","",NA
"347","","2016-01","City of London Police","City of London Police",-0.105134,51.513869,"On or near Bride Lane","E01032740","City of London 001G","Anti-social behaviour","",NA
"348","","2016-01","City of London Police","City of London Police",-0.109647,51.514887,"On or near Fetter Lane","E01032740","City of London 001G","Anti-social behaviour","",NA
"349","","2016-01","City of London Police","City of London Police",-0.109647,51.514887,"On or near Fetter Lane","E01032740","City of London 001G","Anti-social behaviour","",NA
"350","","2016-01","City of London Police","City of London Police",-0.1059,51.516966,"On or near Plumtree Court","E01032740","City of London 001G","Anti-social behaviour","",NA
"351","a3c0ef15646155622ccb83bed6d676ae1519d4b044018f7bb8edd8e52590a767","2016-01","City of London Police","City of London Police",-0.102412,51.517297,"On or near Cock Lane","E01032740","City of London 001G","Bicycle theft","Investigation complete; no suspect identified",NA
"352","4a81ebd59d57039ee7a9850a4185d4d1322b419cba1fda2a6e45ce1c860e521e","2016-01","City of London Police","City of London Police",-0.100884,51.516966,"On or near Hospital","E01032740","City of London 001G","Bicycle theft","Investigation complete; no suspect identified",NA
"353","5eb97f27acf9e1c9a947102b812f495c8f9943b24861fbc8cbc2d1419cb9e0f1","2016-01","City of London Police","City of London Police",-0.100884,51.516966,"On or near Hospital","E01032740","City of London 001G","Bicycle theft","Investigation complete; no suspect identified",NA
"354","fda195e642210b24d7d3b1834b88a935c68ba4daf500fe701976cb8472a611e8","2016-01","City of London Police","City of London Police",-0.11071,51.513914,"On or near Fleet Street","E01032740","City of London 001G","Burglary","Offender given suspended prison sentence",NA
"355","542c389fa124f2f749312e0b787842f65053d2f6babccb7866136c11b592bca9","2016-01","City of London Police","City of London Police",-0.106922,51.514204,"On or near Fleet Street","E01032740","City of London 001G","Burglary","Offender given community sentence",NA
"356","02f880e3d1b19b4f43521d5fd928f0632b3efcb015f9066e55af9babc4e91030","2016-01","City of London Police","City of London Police",-0.101345,51.518709,"On or near Parking Area","E01032740","City of London 001G","Burglary","Investigation complete; no suspect identified",NA
"357","8aadad8a9bfbafc06838928708625028943e2e893057d583d3a346332e22db10","2016-01","City of London Police","City of London Police",-0.106282,51.51191,"On or near John Carpenter Street","E01032740","City of London 001G","Burglary","Suspect charged as part of another case",NA
"358","4839760a1a1988f3a9ea6474a1061c47f2678d615b307d29458db9a2e4b0899d","2016-01","City of London Police","City of London Police",-0.106922,51.514204,"On or near Fleet Street","E01032740","City of London 001G","Criminal damage and arson","Offender given a caution",NA
"359","310654b35ab6c8a1c24abb6683cda16e177250088f5fe902ceb63cdb480ba16a","2016-01","City of London Police","City of London Police",-0.106922,51.514204,"On or near Fleet Street","E01032740","City of London 001G","Criminal damage and arson","Offender given a caution",NA
"360","cc338e56664df69060e2ea2608342aa0862454bc2b7d988a5fd49160703bd71d","2016-01","City of London Police","City of London Police",-0.106922,51.514204,"On or near Fleet Street","E01032740","City of London 001G","Criminal damage and arson","Offender given a caution",NA
"361","13c1ed8a2f05fe7a7d78f00a7de4faca6eafaed101a9bb3dc331aa533b89d5e8","2016-01","City of London Police","City of London Police",-0.106922,51.514204,"On or near Fleet Street","E01032740","City of London 001G","Criminal damage and arson","Unable to prosecute suspect",NA
"362","7ee0858308444b28f4e3a42bcd5029fe74c219191993a3f6a30f61ee055aee27","2016-01","City of London Police","City of London Police",-0.105134,51.513869,"On or near Bride Lane","E01032740","City of London 001G","Criminal damage and arson","Unable to prosecute suspect",NA
"363","abdc7bdf43254da85695f93cb801e05987447b617ae40a4bd5fab56c42ab042c","2016-01","City of London Police","City of London Police",-0.105134,51.513869,"On or near Bride Lane","E01032740","City of London 001G","Criminal damage and arson","Offender given a caution",NA
"364","cea200d611ecb84c950978924bd7eec89092dc893e86288b8d57d16c2366ff54","2016-01","City of London Police","City of London Police",-0.106922,51.514204,"On or near Fleet Street","E01032740","City of London 001G","Criminal damage and arson","Unable to prosecute suspect",NA
"365","f6aa481bfbf9ab722fb1c9560054410144af61f700d069e7f70145200fde4257","2016-01","City of London Police","City of London Police",-0.104281,51.516032,"On or near Bear Alley","E01032740","City of London 001G","Criminal damage and arson","Investigation complete; no suspect identified",NA
"366","797a05956d65ede57d6d12ae10e3f061705502de0215a76430410efc99f3a417","2016-01","City of London Police","City of London Police",-0.106922,51.514204,"On or near Fleet Street","E01032740","City of London 001G","Criminal damage and arson","Unable to prosecute suspect",NA
"367","6b64c9973887511a2eb99142f085967909f5463ac92f82deee557d554af83be7","2016-01","City of London Police","City of London Police",-0.105134,51.513869,"On or near Bride Lane","E01032740","City of London 001G","Criminal damage and arson","Unable to prosecute suspect",NA
"368","cf09159ef838f572731bc74f62f6a8c8ecfc7adeb022e5d65cc8a73d32225e2f","2016-01","City of London Police","City of London Police",-0.106922,51.514204,"On or near Fleet Street","E01032740","City of London 001G","Criminal damage and arson","Offender given a caution",NA
"369","f935de2384d794eaf305a3d64842a7c216d69913136fc643fffcc24b11908c1d","2016-01","City of London Police","City of London Police",-0.108231,51.513928,"On or near Pleydell Street","E01032740","City of London 001G","Criminal damage and arson","Unable to prosecute suspect",NA
"370","cbfc6ea0aca31e8e426e3dd8fdfcdb0aaaae799bbe378b6b2e68224f0a0a8bff","2016-01","City of London Police","City of London Police",-0.108418,51.513581,"On or near Lombard Lane","E01032740","City of London 001G","Criminal damage and arson","Offender given a caution",NA
"371","71e4ed14fa7cab036a6a071f05f3ce916c72f9277a2d4680300ba326dbccbbee","2016-01","City of London Police","City of London Police",-0.108231,51.513928,"On or near Pleydell Street","E01032740","City of London 001G","Criminal damage and arson","Unable to prosecute suspect",NA
"372","cedbd8e53be09aedf425960b92532a605f81c5a3d68ecde626c5b180ab78c7ed","2016-01","City of London Police","City of London Police",-0.106922,51.514204,"On or near Fleet Street","E01032740","City of London 001G","Criminal damage and arson","Unable to prosecute suspect",NA
"373","7824a9f21456c69ae6b86b8c8fbe292ed02bdfca375ff055127bae46fa7b8891","2016-01","City of London Police","City of London Police",-0.098886,51.519254,"On or near Kinghorn Street","E01032740","City of London 001G","Criminal damage and arson","Defendant found not guilty",NA
"374","26a1e1566affaf0411eee087a6c65f71415904b2ec2ce6bca1263033d7359a26","2016-01","City of London Police","City of London Police",-0.104134,51.514699,"On or near Old Seacoal Lane","E01032740","City of London 001G","Criminal damage and arson","Investigation complete; no suspect identified",NA
"375","a514f1f7459be5aec70468dbb3dd6a598b0c994b5410546c8b9986fc02067a32","2016-01","City of London Police","City of London Police",-0.102502,51.516165,"On or near Green Arbour Court","E01032740","City of London 001G","Criminal damage and arson","Status update unavailable",NA
"376","843ed2d3269a410cb4fa95edc85af09ab5c0a415bd9fa84e09fee61d6c652e04","2016-01","City of London Police","City of London Police",-0.106922,51.514204,"On or near Fleet Street","E01032740","City of London 001G","Criminal damage and arson","Unable to prosecute suspect",NA
"377","2a00840f23dc5973a238a50d8cb99ef9c24d8ac8ee35062ea871a1ef35d5f0e2","2016-01","City of London Police","City of London Police",-0.107148,51.511879,"On or near Tallis Street","E01032740","City of London 001G","Drugs","Offender deprived of property",NA
"378","f07f641821fdc1a604e821a4e20093dd5a0759904d6bf2b26010980df6afe9f2","2016-01","City of London Police","City of London Police",-0.104281,51.516032,"On or near Bear Alley","E01032740","City of London 001G","Drugs","Status update unavailable",NA
"379","b386e5823f99ead47ecf692b13956d3a703b47219f13d760f9a5b85253fd9c95","2016-01","City of London Police","City of London Police",-0.107148,51.511879,"On or near Tallis Street","E01032740","City of London 001G","Drugs","Defendant found not guilty",NA
"380","47ea970dde15be7900229dc536e23132bcae3d7223d793ce92868d9a71a0efd1","2016-01","City of London Police","City of London Police",-0.102412,51.517297,"On or near Cock Lane","E01032740","City of London 001G","Other theft","Investigation complete; no suspect identified",NA
"381","d3234a5c83114f838e5f03c9a7f148a9a98f04ae29dcab150a1fc329e6975e5e","2016-01","City of London Police","City of London Police",-0.09832,51.519344,"On or near Newbury Street","E01032740","City of London 001G","Other theft","Investigation complete; no suspect identified",NA
"382","2e8a0b7e980a12f3e28ec0bf9f2db5ee2adbf02253aedeccb254ea410fd9f11c","2016-01","City of London Police","City of London Police",-0.106922,51.514204,"On or near Fleet Street","E01032740","City of London 001G","Other theft","Court result unavailable",NA
"383","2fc8c48d5e9e0af0ad6c7c945845473f6c8ec711b48265179ee876ddfb874df3","2016-01","City of London Police","City of London Police",-0.109647,51.514887,"On or near Fetter Lane","E01032740","City of London 001G","Other theft","Investigation complete; no suspect identified",NA
"384","148602ac697e2997411fa7a128add73bf3b5d27683abb4d4f50012ce4c85f62b","2016-01","City of London Police","City of London Police",-0.099818,51.519017,"On or near Cloth Fair","E01032740","City of London 001G","Other theft","Unable to prosecute suspect",NA
"385","4a099e85a3d4f82e61ed6fa1b87460d29cc38afe4377d29c33e0a9e2fb9ae69e","2016-01","City of London Police","City of London Police",-0.1043,51.511761,"On or near Pedestrian Subway","E01032740","City of London 001G","Other theft","Investigation complete; no suspect identified",NA
"386","9a122e169c0f0fcf22c31bafe1cd8c9b0389137f36888c2c4d299eedb9d5d011","2016-01","City of London Police","City of London Police",-0.104281,51.516032,"On or near Bear Alley","E01032740","City of London 001G","Other theft","Investigation complete; no suspect identified",NA
"387","cb09d1dff282a76c7fcc5439dc83912a11776b07e494e21437b7678eb0110403","2016-01","City of London Police","City of London Police",-0.109155,51.516668,"On or near Fetter Lane","E01032740","City of London 001G","Other theft","Investigation complete; no suspect identified",NA
